id,name,lat,lng
1001,Kijowska,52.248455,21.044827
1002,Ząbkowska,52.251325,21.038457
1003,Dw.Wileński,52.253739,21.035454
1004,Ratuszowa-ZOO,52.256614,21.028536
1005,pl.Hallera,52.258094,21.027097
1006,rondo Starzyńskiego,52.263615,21.019547
1007,Golędzinów,52.266656,21.020014
1008,PIMot,52.269904,21.017729
1009,Batalionu Platerówek,52.273735,21.014418
1010,Śliwice,52.278146,21.011972
1011,Budzińskiej-Tylickiej,52.282073,21.009617
1012,Dyrekcja FSO,52.286644,21.006507
1013,Żerań FSO,52.289797,21.003259
1014,EC Żerań,52.295347,20.997471
1015,Kanał Żerański,52.299240,20.993479
1016,Konwaliowa,52.302715,20.989802
1017,Płochocińska,52.307248,20.983925
1018,Ekspresowa,52.311634,20.978492
1019,Obrazkowa,52.315476,20.975587
1020,Białołęka-Ratusz,52.320610,20.972121
1021,Drogowa,52.326982,20.967982
1022,Klasyków,52.330805,20.965765
1023,Henryków,52.334167,20.962165
1024,Żiżki,52.337473,20.958266
1025,Poetów,52.343160,20.951680
1026,Dąbrówka Szlachecka,52.346283,20.949042
1027,Buków,52.355420,20.941415
1028,Dw.Wschodni (Kijowska),52.252780,21.049991
1029,Zajezdnia Praga,52.256488,21.053229
1030,Wojnicka,52.257407,21.056336
1031,Kawęczyńska-Bazylika,52.258274,21.059237
1032,Markowska,52.254576,21.044862
1033,Korsaka,52.256384,21.050026
1034,Śnieżna,52.259741,21.052788
1035,Naczelnikowska,52.263438,21.057143
1036,Siarczana,52.262169,21.063721
1037,Zabraniecka-Magazyny,52.261176,21.067406
1038,Zabraniecka-Bocznica,52.260757,21.071933
1039,Księżnej Anny,52.260909,21.075939
1040,Matuszewska,52.260428,21.083880
1041,Zabraniecka,52.260747,21.087538
1042,Łubinowa,52.260457,21.094609
1043,Utrata,52.260614,21.100661
1044,Utrata-Magazyny,52.264701,21.093459
1045,Chemiczna,52.263725,21.063213
1046,Hutnicza,52.265535,21.067592
1047,Rzeczna,52.267334,21.071830
1048,Bukowiecka,52.269907,21.077962
1049,Jesiotrowa,52.273810,21.087157
1050,Lniana,52.273543,21.091219
1051,Elsnerów,52.270976,21.093753
1052,Rzeszotarskiej,52.257087,21.040029
1053,Szwedzka,52.259866,21.046369
1054,Piotra Skargi,52.266532,21.058383
1055,Gorzykowska,52.268593,21.060081
1056,Bieżuńska,52.272327,21.063163
1057,Jórskiego,52.276400,21.066470
1058,Kościeliska,52.279579,21.069075
1059,Tużycka,52.282864,21.071784
1060,Młodzieńcza,52.286336,21.074692
1061,Codzienna,52.290664,21.069807
1062,Bohuszewiczówny,52.292078,21.061719
1063,Blokowa,52.286228,21.063395
1064,Lewinów,52.286596,21.086548
1065,Klamrowa,52.286357,21.093364
1066,Inżynierska,52.258429,21.034529
1067,Konopacka,52.259464,21.039320
1068,Środkowa,52.259169,21.042536
1069,Czynszowa,52.260132,21.042926
1070,Kamienna,52.264551,21.042194
1071,Bródnowska,52.263766,21.038261
1072,Harnasie,52.260370,21.035886
1075,Namysłowska,52.266818,21.030033
1076,11 Listopada,52.266563,21.037797
1077,rondo Żaba,52.269314,21.038485
1078,Staniewicka,52.272703,21.032576
1079,Pożarowa,52.277687,21.027848
1080,Budowlana,52.280213,21.025979
1082,Julianowska,52.284732,21.033010
1083,Rembielińska,52.288112,21.029675
1084,Poborzańska,52.290327,21.029188
1085,Metro Bródno,52.293889,21.026742
1086,Toruńska,52.296728,21.024856
1087,Annopol,52.298487,21.021703
1088,Inowłodzka,52.300638,21.021807
1089,Odlewnicza,52.305149,21.018406
1090,Faradaya,52.308341,21.015844
1091,Żerań Wschodni,52.311068,21.012868
1092,Fabryka Pomp,52.303011,21.009646
1093,Daniszewska,52.306737,21.006890
1094,Marywilska-Las,52.308760,21.005370
1095,PKP Żerań,52.313755,21.001456
1096,os.Marywilska,52.315861,20.999731
1097,Marcelin,52.319208,20.997197
1098,Smugowa,52.324397,20.993429
1099,Zyndrama z Maszkowic,52.327291,20.991049
1100,Insurekcji,52.341515,20.988430
1101,Parowozowa,52.345235,20.982534
1102,Polfa,52.315433,20.981632
1103,Fletniowa,52.335164,20.975573
1104,PKP Płudy,52.334447,20.985652
1105,Ołówkowa,52.338677,20.992465
1106,Wałuszewska,52.344171,20.995329
1107,Żyrardowska,52.344816,20.998343
1108,Ambaras,52.340877,20.999684
1109,Zegarynki,52.337428,20.999368
1110,Białołęka Dworska,52.336240,21.004277
1111,Czeremchowa,52.337306,20.964922
1112,Orchowiecka,52.342882,20.972521
1113,Parcelacyjna,52.346604,20.975431
1114,Polnych Kwiatów,52.349868,20.977711
1115,Raciborska,52.353151,20.984354
1116,Choszczówka,52.355499,20.982328
1117,Chęcińska,52.332413,20.958144
1118,Leśnej Polanki,52.330582,20.955643
1119,Talarowa,52.326177,20.949485
1120,Nowodworska,52.320643,20.940360
1121,Czerwińska,52.289196,21.066307
1123,Stanisławów,52.393502,21.033444
1124,Wartka,52.309522,20.988234
1125,Cementownia,52.310798,20.992396
1126,Płytowa,52.316558,21.011764
1127,Zaplecze,52.318660,21.018830
1128,Zakłady Zbożowe,52.320748,21.023607
1129,Bruszewska,52.327496,21.028882
1130,Nowiny,52.332860,21.029947
1131,Tomaszew,52.338692,21.028890
1132,Szamocin,52.348728,21.028892
1133,Kobiałka,52.354834,21.028214
1134,Długorzeczna,52.362086,21.027760
1135,Grabina,52.364708,21.028094
1136,Myszkowska,52.269919,21.056578
1137,Metro Targówek Mieszkaniowy,52.269505,21.050682
1138,DKS Targówek,52.272537,21.046052
1139,Handlowa,52.273675,21.052467
1140,Metro Trocka,52.274977,21.056486
1141,Metro Zacisze,52.285114,21.061275
1142,Rogowska,52.270406,21.041457
1143,Kołowa,52.273204,21.042807
1144,Cm.Bródnowski,52.278150,21.044071
1145,Żuromińska,52.287714,21.048138
1146,Metro Kondratowicza,52.292232,21.046715
1147,Szpital Bródnowski,52.292684,21.040741
1148,Park Bródnowski,52.292916,21.037571
1149,Knapika,52.296679,21.053082
1150,Suwalska,52.296007,21.032823
1151,Rolanda,52.282364,21.053334
1152,Bródno-Podgrodzie,52.299159,21.042559
1153,Łojewska,52.295509,21.042155
1154,Klub Lira,52.296543,21.035578
1155,Chodecka,52.288181,21.039597
1156,Wyszogrodzka,52.288563,21.034984
1157,Bartnicza,52.285260,21.022402
1158,Bazyliańska,52.290536,21.018613
1159,PKP Toruńska,52.293114,21.010374
1160,Wołomińska,52.262695,21.054796
1161,św.Hieronima,52.292292,21.021912
1162,Pelcowizna,52.294651,21.015636
1163,Park Praski,52.252548,21.029576
1164,Wybrzeże Helskie,52.262254,21.014147
1165,Turmoncka,52.297710,21.033105
1166,Kopijników,52.300640,21.030664
1167,Gryfitów,52.303399,21.029830
1168,Wielkiego Dębu,52.306518,21.029828
1169,Zbyszka z Bogdańca,52.311041,21.029885
1170,Danusi,52.314473,21.029806
1171,Przydrożna,52.316720,21.029500
1172,Przyjazna,52.318453,21.032446
1173,Dobka z Oleśnicy,52.322642,21.032437
1174,Białołęka-Kanał,52.325822,21.031791
1175,Warzelnicza,52.330157,21.032145
1176,Brzeziny,52.334818,21.033365
1177,Łokietka,52.278838,21.060719
1178,Samarytanka,52.279837,21.056745
1179,CH Targówek,52.302958,21.059109
1180,os.Lewandów I,52.311210,21.063520
1181,Okrągła,52.317189,21.067200
1182,Grodzisk,52.323473,21.067047
1183,Kąty Grodziskie,52.324861,21.064155
1184,Arena Legionowo,52.399576,20.916399
1185,Buchnik,52.364638,20.933668
1186,Piaskowa,52.369250,20.929770
1187,Szkolna,52.373568,20.926132
1188,Pałac,52.377176,20.918845
1189,Szarych Szeregów,52.383910,20.924139
1190,Sobieskiego,52.387755,20.928572
1192,3 Maja,52.395977,20.927956
1193,Mickiewicza,52.398003,20.922969
1194,Erazma z Zakroczymia,52.324192,20.946331
1195,Mehoffera,52.322093,20.944944
1196,Parkowa,52.406582,20.919209
1197,PKP Legionowo Przystanek,52.410807,20.915447
1199,Zajezdnia Stalowa,52.263361,21.048360
1200,Wilkowiecka,52.342450,21.028410
1202,Oknicka,52.322483,21.078628
1203,Chudoby,52.324309,21.075525
1205,Głębocka,52.307015,21.061135
1208,os.Młodych,52.421694,20.925558
1209,Powstańców,52.277437,21.115322
1210,Szwoleżerów,52.284134,21.110058
1211,Warszawska,52.286335,21.105668
1213,Gościeradowska,52.276193,21.047164
1215,Gilarska,52.286574,21.047238
1217,Księcia Ziemowita,52.262632,21.060010
1218,Sadkowska,52.336240,20.988950
1219,Milenijna,52.319480,20.968375
1220,Sierakowskiego,52.250013,21.030829
1222,Cmentarz,52.281143,21.112225
1225,Zdziarska-Kanał,52.340214,21.048737
1226,Mańki-Wojdy,52.339558,21.047644
1227,Lwowska,52.403300,20.913560
1228,Rycerska,52.395943,20.919109
1229,Husarska,52.393413,20.921064
1230,Siwińskiego,52.390580,20.924951
1231,Metro Stadion Narodowy,52.247067,21.043105
1232,most Świętokrzyski,52.242650,21.038739
1233,Wiejska,52.306398,21.091196
1234,CH Marki,52.304988,21.085399
1235,Wolności,52.302605,21.088039
1236,Szpitalna,52.311649,21.095529
1237,Szkolna,52.317187,21.100092
1238,Marki-Ratusz,52.326150,21.107515
1239,Wspólna,52.333361,21.113379
1240,Pustelnik,52.338707,21.117690
1241,Graniczna,52.351865,21.128707
1242,Struga,52.358492,21.134140
1243,Legionowa,52.361601,21.123368
1244,Czarna Struga,52.360867,21.111262
1246,Hallera,52.343142,21.121361
1249,Słoneczna,52.329096,21.109924
1250,Porajów,52.314376,20.962767
1251,Picassa,52.313344,20.958228
1253,Nowodwory,52.331651,20.941244
1254,Braci Zawadzkich,52.323906,20.969795
1255,Internetowa,52.322430,21.072006
1256,Myśliborska,52.317100,20.961898
1257,Pancera,52.318314,20.946588
1258,Bystra,52.294708,21.081454
1259,Chłodnia,52.299775,21.011773
1260,KS Polonez,52.299635,21.031082
1263,Cmentarz,52.414645,20.927009
1264,Orzechowa,52.418225,20.924110
1265,Gazownia,52.369113,21.028658
1266,Rembelszczyzna,52.377272,21.028998
1267,Aleksandrów,52.397018,21.034986
1268,Głogi,52.402229,21.037241
1269,Lipy,52.407105,21.038266
1270,Urząd Gminy,52.421795,21.035233
1271,os.Las,52.424249,21.033747
1272,PKP Nieporęt,52.430507,21.030433
1273,Port Nieporęt,52.434033,21.041469
1274,Port Pilawa,52.437848,21.046365
1275,al.Wojska Polskiego,52.440483,21.049771
1276,Białobrzegi,52.441068,21.056353
1277,Tarchomin,52.318172,20.952937
1278,Pomorska,52.326412,20.957209
1279,Krynoliny,52.290385,21.078017
1280,Jesiennych Liści,52.309484,21.061799
1281,Ostródzka,52.304725,21.051225
1283,Współczesna,52.307828,21.052006
1285,Krzemienna,52.313761,21.051351
1286,Juranda ze Spychowa,52.317293,21.050570
1287,Berensona,52.322027,21.049316
1288,Ostródzka-Szkoła,52.327411,21.048033
1289,Małych Dębów,52.330915,21.047151
1290,Mochtyńska-Kanał,52.347357,21.043053
1291,Aroniowa,52.351968,21.038766
1292,Szymanowskiego,52.262846,21.034588
1293,Kobiałka-Szkoła,52.361503,21.046325
1294,Ruskowy Bród,52.361224,21.052900
1295,Olesin,52.361693,21.061857
1296,Mochtyńska,52.357728,21.035482
1297,Przyleśna,52.384864,21.029733
1298,Stefanika,52.326887,20.940572
1299,Pańska,52.374390,20.927982
1300,Nieświeska,52.264207,21.077007
1301,PKP Targówek,52.262617,21.052620
1302,Urząd Miasta,52.394247,20.931618
1303,Kraśnicka,52.274372,21.066746
1304,Potulicka,52.286735,21.081865
1305,Okrzei,52.250880,21.035999
1306,Chotomów,52.411392,20.884965
1307,Piusa XI,52.410767,20.900263
1308,Kościuszki,52.410677,20.907245
1309,ks.Skorupki,52.403409,20.925636
1310,os.Jagiellońska,52.401830,20.927550
1311,CH Błękitne,52.397381,20.935127
1312,Ceramiczna,52.320627,20.968689
1313,Ćmielowska,52.323857,20.960501
1314,Kamińskiego,52.321356,20.956015
1315,Strumykowa,52.332163,20.946153
1316,Ćwiklińskiej,52.331880,20.951521
1317,Dąbrówka Wiślana,52.348532,20.942306
1318,Małego Rycerza,52.334074,21.047250
1319,Malborska,52.296310,21.054688
1320,Kościuszki,52.320517,21.093465
1321,Stokrotki,52.435380,21.023531
1323,Zegrze Płd.,52.452263,21.009999
1324,Dworkowa,52.371962,20.934343
1325,Leśna,52.375625,20.938039
1326,Skarbka z Gór,52.324689,21.054643
1327,Sosnkowskiego,52.295081,21.091481
1328,Hallera,52.294567,21.095645
1329,Wyspiańskiego,52.294738,21.103921
1331,Nauczycielska,52.321887,21.085203
1332,ks.Skorupki,52.288487,21.118208
1334,Sikorskiego,52.287194,21.120731
1335,Zieleniecka,52.284434,21.123857
1337,Pułaskiego,52.285289,21.134392
1339,Kupiecka,52.320264,21.012243
1340,Kołłątaja,52.288631,21.110946
1342,Waryńskiego,52.299998,21.151874
1343,Kolejowa,52.302772,21.158939
1344,Muzeum Zielonki,52.308077,21.155363
1345,pl.Jana Pawła II,52.310880,21.152548
1347,Zdziarska,52.341132,21.058951
1348,Jarzębinowa,52.345941,21.055773
1349,Mańkowska,52.349428,21.054395
1351,Tymotki,52.356456,21.052959
1352,Fabryczna,52.320082,21.102426
1353,Juranda ze Spychowa-Szkoła,52.317845,21.032545
1354,Echa Leśne,52.317783,21.035966
1355,Kamykowa,52.317720,21.041810
1357,os.Derby VI,52.321811,21.056939
1358,os.Derby III,52.318701,21.058223
1359,os.Derby,52.315782,21.059936
1360,Kąpielowa,52.448073,21.058585
1361,Wczasowa,52.452503,21.069211
1362,WDW Rynia,52.456514,21.074098
1363,OW Promenada,52.464738,21.075095
1364,Główna,52.471853,21.069501
1365,Rynia,52.474077,21.069834
1366,Aluzyjna,52.349392,20.946459
1367,os.Batorego,52.397057,20.937296
1368,Słowackiego,52.399669,20.941919
1370,Sielankowa,52.395090,20.937827
1371,Zegrzyńska,52.403431,20.948328
1372,os.Piaski,52.406264,20.951996
1373,al.Sybiraków,52.410371,20.951560
1374,Piaskowa,52.411847,20.947078
1375,PKP Legionowo Piaski,52.411999,20.939380
1376,Bandurskiego,52.414297,20.932460
1377,Cynkowa,52.414881,20.923199
1378,Szarych Szeregów,52.423805,20.933098
1379,Starostwo Powiatowe,52.421162,20.939224
1389,Sasina,52.345410,21.228862
1390,os.Nafta,52.350142,21.241631
1391,PKP Wołomin Słoneczna,52.355936,21.255888
1393,os.Niepodległości,52.351892,21.258697
1395,Legionów,52.346081,21.241458
1396,Wiejska,52.340766,21.242156
1400,Turów,52.315827,21.196236
1402,Ciołkosza,52.326640,20.936906
1403,Hanki Ordonówny,52.332408,20.935824
1404,Barei,52.336718,20.937517
1405,Dzierzgońska,52.339838,20.940166
1406,Grzymalitów,52.338645,20.943498
1408,Akademijna,52.376782,20.933111
1409,os.Przylesie,52.374443,20.933640
1411,Strużańska,52.404091,20.950368
1412,Krakusa,52.401030,20.954380
1413,Objazdowa,52.391095,20.981953
1414,Szkolna,52.384490,21.001298
1415,Kąty Węgierskie,52.387807,21.014327
1416,Anusinek,52.382030,21.020230
1417,gen.Roi,52.396490,20.959330
1418,os.Bukowiec,52.395028,20.955934
1420,Polna,52.399336,20.955642
1421,Tłuchowska,52.341258,20.940904
1422,Osiedle,52.345877,20.943443
1423,Zegrzyńska-IMGW,52.408633,20.954917
1424,Główna,52.353202,20.941079
1425,Chotomowska,52.381406,20.908226
1426,Cmentarz,52.386966,20.903686
1427,Kisielewskiego,52.397592,20.895257
1428,Jasna,52.402556,20.891250
1429,Odkryta,52.324678,20.937698
1430,Krzesiwa,52.279129,21.078103
1431,Diamentowa,52.280333,21.081649
1433,Stara,52.363812,21.160974
1434,Nadma,52.361874,21.166284
1435,Sękocin,52.359472,21.163721
1436,Poziomkowa,52.360233,21.153895
1437,Jaworówka,52.359985,21.146679
1438,Frachtowa,52.358794,21.038577
1439,Siwek,52.470250,21.090390
1440,Wolica,52.479133,21.094733
1441,Zegrzyńska,52.479675,21.102688
1442,Marcinki,52.480106,21.109342
1443,Załubice-Szkoła,52.481085,21.123875
1445,Załubice-Poczta,52.481548,21.131051
1446,Stare Załubice,52.480613,21.117084
1447,Ceglana,52.366190,21.140310
1449,Nowe Słupno,52.378221,21.150583
1450,Słupno,52.383562,21.155027
1451,Górki,52.391008,21.161226
1452,Cmentarz 1920 r.,52.399465,21.168178
1454,ks.Czartoryskiej,52.415140,21.178749
1455,Traugutta,52.417047,21.182115
1456,Norwida,52.415217,21.186681
1457,Korczaka,52.413803,21.192245
1458,os.Victoria,52.410167,21.201462
1463,os.Lewandów II,52.322267,21.074440
1464,Królewska,52.379336,20.918106
1468,Ratuszowa,52.256974,21.032532
1469,Świderska,52.310590,20.959363
1471,Brzezińska,52.351583,20.981196
1472,Geodezyjna,52.307736,21.079734
1473,Dzika,52.279184,21.124664
1474,Maczka,52.279838,21.130634
1475,Kosynierów,52.286055,21.130395
1476,Gajowa,52.287421,21.128866
1477,Kanał Bródnowski,52.284205,21.058211
1478,Protazego,52.414774,21.037890
1479,os.Bukowy Dworek,52.368492,20.941117
1481,pl.Ostrej Bramy,52.274953,21.083443
1482,PKP Zacisze-Wilno,52.277319,21.080409
1483,Chlubna,52.355019,20.952122
1486,Krokwi,52.334574,20.971444
1487,Dworkowa,52.329389,21.170250
1488,Serwitucka,52.338027,21.182800
1490,PKP Kobyłka,52.337075,21.214500
1491,Czereśniowa,52.323126,21.167134
1492,Leszyckiego,52.295032,21.111386
1493,Urząd Miasta,52.294029,21.113851
1494,Orla,52.291373,21.116853
1497,Kaflowa,52.322566,20.965385
1498,Płużnicka,52.310528,20.970316
1499,Kasztanowa,52.306512,20.974551
1500,Laurowa,52.302761,20.977806
1504,Szumiących Traw,52.309524,21.058531
1506,Wierna,52.272746,21.084797
1507,Tarchomin Kościelny,52.323845,20.942721
1510,Ojca Aniceta,52.307423,21.033885
1511,Pośrednia,52.309857,21.039833
1512,Porzeczkowa,52.314242,21.038141
1513,pl.Wolności,52.420232,21.034619
1514,Dębowa,52.361933,20.946050
1517,Lusińska,52.274207,21.050112
1519,Przejezdna,52.343116,21.046220
1520,Park Magiczny,52.312260,21.060198
1521,Śreniawitów,52.315917,20.966233
1522,Młyn Michla,52.256418,21.061437
1524,Sieczna,52.314086,21.066641
1525,Grodzisk-Kościół,52.320283,21.066541
1526,Szlachecka,52.311894,21.022450
1528,Niwa,52.281853,21.046494
1529,Przy Grodzisku,52.292259,21.056433
1530,Januszewicza,52.314983,21.178599
1533,Walewskiej,52.339252,21.114239
1534,Karłowicza,52.341968,21.108201
1535,Parkowa,52.344854,21.097910
1536,Kolonia Makówko,52.342758,21.097685
1537,Strefa Przemysłowa,52.335525,21.099610
1538,Okólna,52.331658,21.101964
1540,Struga-Kościół,52.361715,21.136688
1541,Bandurskiego I,52.325155,21.104209
1542,Bandurskiego II,52.327787,21.095752
1543,Hoovera,52.330089,21.092649
1544,Cmentarz Marki,52.332714,21.090056
1545,Jagiełły,52.322070,21.114021
1546,Sokola,52.320202,21.119620
1547,Wronia,52.317177,21.126017
1550,Boczna,52.410651,20.893220
1557,Podwójna,52.312523,21.065478
1558,Augustów,52.338695,21.067045
1559,Augustówek,52.341891,21.066588
1560,Warzelnicza-Szkoła,52.326505,21.039353
1561,Berensona-Kanał,52.325153,21.050447
1562,Metro Szwedzka,52.262541,21.044482
1565,Areszt Śledczy Białołęka,52.335999,21.008571
1566,Ogrody Przyjaciół,52.333690,21.018116
1567,Warmińska,52.329803,21.027390
1568,Słowackiego,52.411707,21.197553
1569,Przylesie,52.346096,20.955751
1571,Portowa,52.302210,20.981822
1574,Starego Dębu,52.347933,20.978459
1575,Koszalińska,52.279555,21.074642
1577,Perłowa,52.282692,21.083167
1582,Prymasa Wyszyńskiego,52.302772,21.158939
1583,Os.Poligon,52.302439,21.160310
1586,Długa,52.438569,20.850041
1587,Krótka,52.344799,21.216144
1589,os.Panieńska,52.248279,21.028187
1591,Sikorskiego,52.326282,21.196225
1593,Majdańska,52.325622,21.203633
1594,Nadarzyńska,52.326698,21.210715
1595,Orzeszkowej,52.325364,21.214699
1596,ks.Skorupki,52.323114,21.217217
1601,Stadion Narodowy,52.246644,21.042728
1602,Dw.Wileński,52.253537,21.035917
1603,Szwedzka,52.263329,21.044887
1604,Targówek Mieszkaniowy,52.268763,21.051213
1605,Trocka,52.274738,21.054385
1606,Zacisze,52.283210,21.062280
1607,Kondratowicza,52.291967,21.049636
1608,Bródno,52.293448,21.029795
1670,rondo WOŚP,52.402990,20.915099
1672,Wyzwolenia,52.291833,21.130333
1675,Wiosenna,52.369104,21.285181
1676,Cmentarz,52.374415,21.238859
1677,Orszagha-Tunel,52.332318,21.213296
1678,Przytorowa,52.362614,21.276232
1679,Sanktuarium Jana Pawła II,52.408254,21.204554
1680,P+R Radzymin,52.403515,21.195939
1684,Ruskowy Bród-Szkoła,52.344098,21.058491
1687,Pucciniego,52.342945,21.054955
1688,Os.Zielona Dolina,52.345702,21.054064
1689,Krzewna,52.272117,21.083372
1690,Olszowa,52.367284,21.304346
1693,Starorzecze,52.492383,21.131720
1694,Opolska,52.493488,21.146184
1696,PWiK,52.329403,21.260864
1697,Verdiego,52.340760,21.054638
1698,Mcs-Basen,52.289889,21.121389
1700,Szpital Powiatowy,52.345709,21.220435
1702,Szkolna,52.360871,21.166593
1705,Żymirskiego-Przychodnia,52.338634,21.199154
1706,Armii Krajowej,52.342446,21.222315
1707,PKP Kobyłka-Ossów,52.325040,21.190902
1708,Zalasek,52.355723,21.191857
1709,Radzymińska,52.348665,21.197784
1710,11 Listopada,52.340026,21.213203
1711,Chopina,52.333030,21.193646
1712,Kordeckiego,52.345443,21.182760
1713,Kościół,52.339291,21.193867
1714,Cmentarz,52.338116,21.204274
1715,Krasickiego,52.328048,21.217380
1717,Pionierska,52.344965,21.211295
1719,Magnolii,52.459597,20.950921
1720,Beniaminów,52.442330,21.107996
1721,Przemysłowa,52.430628,21.155341
1722,Kolonia Pod Lasem,52.425843,21.162570
1724,Maczka,52.410744,21.176844
1726,Magnolii,52.392104,21.147726
1727,Szkolna,52.395832,21.143397
1728,Ekologiczna,52.399080,21.135600
1729,Podbipięty,52.402391,21.124628
1730,Sobieskiego,52.405226,21.116581
1731,Rozwadowskiego,52.319983,21.189152
1732,Dąbrowskiego,52.316732,21.188806
1733,Kazimierza Odnowiciela,52.359370,21.178996
1734,Mała,52.348288,21.206260
1735,Hubala,52.315306,21.185151
1736,Wawrzyna,52.395783,21.165713
1738,Sasankowa,52.435896,21.147386
1739,Wróblewskiego,52.421302,21.173265
1740,Lipowa,52.386187,21.153283
1741,Graniczna,52.329383,21.250198
1742,Stare Grabie-Szkoła,52.370842,21.316781
1743,PKP Wołomin,52.346473,21.238823
1744,Majdan,52.324235,21.285454
1745,Czarna,52.369839,21.225472
1746,Reja,52.349884,21.253944
1747,Lipinki,52.374847,21.286964
1748,Sasina-Liceum,52.347315,21.225823
1749,Piłsudskiego-Kościół,52.350193,21.232157
1750,Popularna,52.352090,21.237841
1751,Batorego,52.352700,21.246034
1754,Kościelna,52.343771,21.250204
1755,Lipińska,52.342216,21.243199
1756,Partyzantów-Szkoła,52.335896,21.242551
1757,Gryczana,52.333681,21.250722
1758,Turów II,52.312894,21.206897
1759,Ossów-Szkoła,52.309271,21.218812
1760,Ossów-Krzyż,52.309853,21.234300
1761,Krymska,52.310482,21.240825
1762,Leśniakowizna,52.318105,21.273539
1763,Cięciwa,52.317246,21.291391
1764,Mostówka,52.335391,21.298812
1765,Cmentarz,52.332567,21.273710
1766,Mieszka I,52.348052,21.258451
1767,Miejski Dom Kultury,52.348504,21.247165
1768,Lipowa,52.359406,21.222807
1769,Helenów,52.374400,21.230568
1770,Tramwajowa,52.375137,21.254257
1771,Zagościniec-Szkoła,52.372922,21.266393
1772,PKP Zagościniec,52.365774,21.281753
1775,Stare Grabie,52.363624,21.333079
1776,Nowe Grabie I,52.356594,21.303557
1777,Nowe Grabie II,52.352886,21.319600
1778,Przemysłowa,52.316512,21.162632
1779,Mostowa,52.360270,21.172533
1780,Nowe Lipiny,52.356216,21.268547
1781,Duczki-Szkoła,52.362602,21.291474
1782,Stare Lipiny,52.336073,21.270542
1783,Willowa,52.362378,21.282097
1784,Waryńskiego,52.355367,21.248573
1786,Stare Grabie II,52.367059,21.323395
1787,Leśniakowizna II,52.311628,21.258530
1788,ZUS,52.347585,21.257207
1789,Dębowa,52.385537,20.897929
1790,Nadzorcówka,52.392142,20.870945
1791,Golfowa,52.397691,20.842729
1792,Lipowa,52.401076,20.825458
1793,Puszczyka,52.402206,20.819765
1794,Nadwiślańska,52.403998,20.810706
1795,Sołecka,52.407308,20.794338
1796,Suchocin,52.410095,20.780489
1797,Dębowa,52.414712,20.757512
1798,os.Młodych,52.416874,20.746309
1799,Leśna,52.418466,20.738087
1800,PKP Legionowo,52.400774,20.941536
1801,PKP Michałów-Reginów,52.419199,20.963670
1802,Wrzosowa,52.424000,20.959714
1804,Piaskowa,52.428830,20.954998
1805,Kościelna,52.434950,20.958910
1806,Szpital Onkologiczny,52.439881,20.961983
1807,Podgórna,52.443341,20.964155
1808,Polna,52.450603,20.968796
1810,Modlińska,52.452316,20.955053
1812,Słoneczna,52.457283,20.957037
1813,Przedpełskiego,52.462278,20.944185
1814,Wodociąg Płn.,52.470879,20.949302
1815,Wieliszew-Plaża,52.478898,20.945485
1817,Polna,52.470546,20.927118
1818,Sosnowa,52.475927,20.914997
1819,Komornica-Szkoła,52.483010,20.923404
1821,Wiśniowa,52.452661,20.941900
1822,Poniatów,52.453320,20.922090
1825,Kałuszyn,52.453164,20.871863
1826,Warszawska,52.448559,20.860622
1827,Wiejska,52.443098,20.847028
1828,Spacerowa,52.441240,20.840170
1829,Krubin,52.442765,20.814894
1830,Kwiatowa,52.442104,20.800688
1831,Dworcowa,52.438780,20.779123
1834,Warszawska,52.415998,20.964472
1835,Wolska,52.411723,20.958830
1839,Rozwojowa,52.458819,20.908332
1840,OSP Skrzeszew,52.462154,20.894581
1841,Olszewnica Stara,52.441443,20.863402
1843,Nowodworska,52.427603,20.956302
1844,Szkolna,52.424495,20.951526
1845,Fabryczna,52.419134,20.946185
1846,Rynek,52.399473,20.937705
1847,Solidarności,52.449073,20.968512
1848,11 Listopada,52.296966,21.154955
1849,Paderewskiego,52.294799,21.158890
1850,Os.Wituś,52.298114,21.161579
1851,Urząd Miasta,52.311855,21.153349
1852,Wolności,52.315073,21.157751
1853,Młodzieżowa,52.315243,21.152280
1854,Sowińskiego,52.315890,21.146149
1855,Powstańców,52.314291,21.143657
1856,Marecka,52.311664,21.135735
1857,Drewnicka,52.312423,21.129128
1859,Rzeczna,52.445520,20.767270
1860,Mickiewicza,52.306629,21.157086
1861,Słoneczna,52.398153,20.951261
1862,Polna,52.440903,20.822609
1863,Królewska,52.396650,21.044639
1864,Andersena,52.282917,21.139519
1865,Łąki,52.441032,21.139997
1866,Biedronki,52.444504,21.122590
1868,PKP Dąbkowizna,52.423577,21.083412
1869,Majowa,52.414120,21.091613
1870,Wirażowa,52.409527,21.100410
1871,GOK,52.408204,20.973958
1872,Wiśniowa,52.410871,20.963450
1873,Przyszłość,52.394130,21.045166
1874,Rodzinna,52.387188,21.043971
1875,Księżycowa,52.376404,21.040236
1876,Pałacowa,52.448765,20.775833
1877,Sielska,52.380212,21.040586
1878,Okunin,52.435998,20.760849
1879,Przemysłowa,52.431207,20.746794
1880,Straż,52.430444,20.738222
1881,Zdobywców Kosmosu,52.430930,20.721039
1882,Urząd Miasta,52.430581,20.709710
1883,Nowolipie,52.423171,21.050534
1884,Przyjaciół,52.415841,21.055346
1885,Pęczkowskiego,52.408649,21.057833
1888,Beniaminówka,52.418079,21.085352
1890,Sosenkowa,52.400411,21.058412
1891,Izabelińska,52.396165,21.057404
1893,Koncertowa,52.397035,21.037754
1894,Kościelna-OSP,52.390559,21.013751
1896,Marzycieli,52.396512,20.999178
1897,Gajowa,52.402110,20.992962
1898,Wolska I,52.403721,20.987825
1899,Wolska III,52.407040,20.978311
1901,Warszawa ZOO,52.263400,21.017290
1902,Warszawa Praga,52.276620,21.022880
1903,Warszawa Toruńska,52.293270,21.013520
1904,Warszawa Żerań,52.313710,20.999260
1905,Warszawa Płudy,52.333440,20.986130
1906,Warszawa Choszczówka,52.357120,20.972590
1907,Legionowo,52.400920,20.942660
1908,Legionowo Piaski,52.412200,20.942090
1909,Michałów-Reginów,52.422310,20.962140
1910,Wieliszew,52.428030,20.974430
1913,Nieporęt,52.430710,21.031810
1914,Dąbkowizna,52.423809,21.085218
1915,Radzymin,52.424206,21.176377
1928,Warszawa Targówek,52.263937,21.052800
1929,Wieliszew-Centrum,52.442786,20.994469
1930,Zegrze Południowe,52.451382,21.007561
1939,Słowackiego,52.342059,21.247176
1940,Glinianki,52.319581,21.166413
1942,Kalenica,52.352825,20.931626
1943,Bukowska,52.351413,20.925753
1944,Kępa Tarchomińska,52.348314,20.925466
1946,Hallera,52.404227,21.172182
1947,Winnica,52.340530,20.946824
1950,Morawicza,52.419195,20.730648
1951,Akacjowa,52.422838,20.726022
1952,Paderewskiego,52.427992,20.719080
1953,Wypoczynkowa,52.418292,20.889274
1954,Lipowa,52.422933,20.886522
1955,Brzozowa,52.430598,20.877202
1956,Polna,52.433347,20.872419
1957,PKP Wołomin (Laskowa),52.347623,21.239151
1958,Miejski Ośrodek Kultury,52.338086,21.210191
1959,Orszagha,52.339542,21.208397
1960,Prądzyńskiego,52.342354,21.238907
1961,Leszczyńska,52.336566,21.236532
1962,Sokola,52.333624,21.237158
1964,Urząd Miasta,52.345304,21.239741
1965,Os.Wolności,52.315270,21.162176
1966,Mazurska,52.314329,21.140873
1967,Kościuszki,52.313970,21.148331
1969,Szymańskiego,52.314567,21.174367
1970,Turowska,52.312907,21.167256
1971,Korczaka,52.312719,21.164563
1972,PKP Zielonka,52.310186,21.156147
1973,Poniatowskiego,52.308283,21.163025
1974,ks.Skorupki,52.304681,21.160614
1975,Pustelnicka,52.314151,21.129908
1976,Różana,52.311775,21.145796
1977,Ząbkowska,52.317178,21.115708
1978,Bankowa,52.291771,21.159750
1979,PKP Zielonka Bankowa,52.292194,21.155903
1980,Armii Krajowej,52.294753,21.155109
1981,Sportowa,52.324072,21.107718
1982,PKP Zielonka (Zosinek),52.311872,21.158902
1983,Wrzosowa,52.372536,21.160865
1985,Bieszczadzka,52.380201,21.162967
1986,Ręczajska,52.358585,21.298361
1988,Kwiatowa,52.409939,20.966847
1990,Nowe Grabie-Cmentarz,52.356175,21.327592
1991,Wolska II,52.405229,20.983261
1992,Akacjowa,52.393670,21.005495
1997,Wiklinowa,52.409054,20.785113
1998,Nowa,52.359849,21.167540
1999,Głowackiego,52.419333,21.183984
2001,al.Zieleniecka,52.247719,21.046928
2002,Lubelska,52.247478,21.051167
2003,Bliska,52.247084,21.057408
2004,Gocławska,52.246739,21.062456
2005,Praga-Płd.-Ratusz,52.246329,21.068907
2006,Międzyborska,52.246061,21.073340
2007,Kickiego,52.245621,21.079289
2008,Wiatraczna,52.245560,21.082530
2009,Czapelska,52.244831,21.091233
2010,Wspólna Droga,52.244099,21.094242
2011,pl.Szembeka,52.242620,21.101188
2012,Żółkiewskiego,52.241425,21.106785
2013,Kwatery Głównej,52.239726,21.114671
2014,Gocławek,52.237886,21.119064
2015,Płowiecka,52.234827,21.126012
2016,Świecka,52.232834,21.130426
2017,Edisona,52.230033,21.136972
2018,Trakt Lubelski,52.228605,21.140217
2019,Trawiasta,52.226243,21.154996
2020,Kajki,52.226026,21.160360
2021,Wierzchowskiego,52.225490,21.174800
2022,Kolonia Helenów,52.225058,21.187206
2023,Bronisława Czecha-Las,52.224794,21.195504
2024,Odrodzenia,52.221609,21.162884
2025,Alpejska-Instytut,52.217853,21.164252
2026,IX Poprzeczna,52.212720,21.166140
2027,Czatów,52.209759,21.171473
2028,Pożaryskiego,52.206191,21.175694
2029,Bursztynowa-Szpital,52.206978,21.180579
2030,Bielszowicka,52.206887,21.185681
2031,Centrum Zdrowia Dziecka,52.207365,21.191205
2032,Międzylesie,52.208298,21.196622
2033,Trzykrotki,52.208710,21.200035
2034,Wiśniowa Góra,52.210086,21.205616
2035,PKP Wawer,52.222521,21.149433
2036,Solidna,52.218916,21.153583
2037,PKP Anin,52.213449,21.159017
2038,Piechurów,52.209503,21.163045
2039,PKP Międzylesie,52.205188,21.167349
2040,Odeska,52.200192,21.172059
2041,Montażowa,52.191043,21.181191
2042,Pomologiczna,52.186011,21.186419
2043,PKP Radość,52.184286,21.188079
2044,Wielowiejska,52.179003,21.193289
2045,Szachowa,52.173151,21.199204
2046,PKP Miedzeszyn,52.170003,21.202347
2047,Prasowa,52.165321,21.207027
2048,PKP Falenica,52.161193,21.211121
2049,Czekanowska,52.163981,21.219689
2050,Przełęczy,52.169250,21.224119
2051,Napoleona Bonaparte,52.171497,21.226676
2052,Falenica,52.159477,21.203298
2053,MERA-PNEFAL,52.158439,21.197304
2054,Kosaćcowa,52.156470,21.187405
2055,Bysławska,52.155115,21.183030
2056,Krokusów,52.152343,21.187357
2057,Błota,52.149595,21.188687
2058,PKP Gocławek,52.239013,21.131730
2059,Okularowa,52.241384,21.134678
2060,Rezedowa,52.238150,21.138850
2061,Łysakowska,52.237404,21.143060
2062,Potockich,52.238333,21.147610
2064,Marysin,52.239788,21.155070
2065,Spółdzielnia Noma,52.241048,21.161315
2067,Rekrucka,52.243508,21.137612
2068,Marsa-Las,52.248074,21.143405
2069,Pocisk,52.252753,21.151553
2070,PKP Rembertów,52.255373,21.155678
2071,Rafii,52.244565,21.134134
2072,Szymańskiego,52.247719,21.132377
2073,Oraczy,52.252812,21.128333
2074,Gontarska,52.255003,21.127724
2075,rondo Granzowa,52.259624,21.126564
2076,Gwarków,52.264857,21.122074
2077,Ciepłownia Kawęczyn,52.267299,21.120793
2078,Ogrody Działkowe Kawęczyn,52.273264,21.117689
2080,Strażacka,52.258877,21.131535
2081,Żołnierska,52.260393,21.144844
2082,Kordiana,52.260065,21.154291
2083,Rembertów-Ratusz,52.258893,21.161024
2084,Przebieg,52.257109,21.166459
2085,Buławy,52.256993,21.171964
2086,Rembertów-Kolonia,52.256981,21.177176
2087,Eskulapów,52.260529,21.163296
2088,Rembertów-Akademia,52.264261,21.169116
2090,Zawodowa,52.263234,21.157175
2091,Szafarzy,52.267940,21.153120
2092,Paderewskiego,52.269882,21.150859
2093,Dziewanowska,52.271905,21.154250
2094,Szyszaków,52.273275,21.158345
2095,Listonoszy,52.274594,21.162278
2096,Wał Miedzeszyński,52.226494,21.054205
2097,Saska,52.228421,21.061843
2098,Międzynarodowa,52.229911,21.067275
2099,Kanał Gocławski,52.233033,21.074920
2100,Przyczółek Grochowski,52.235666,21.078456
2101,Poligonowa,52.236216,21.088011
2102,Zamieniecka,52.234785,21.098927
2103,CH Promenada,52.233927,21.106611
2104,Zajezdnia Ostrobramska,52.232779,21.116666
2105,Witolin,52.236275,21.112945
2106,Tarnowiecka,52.237096,21.104726
2107,Łukowska,52.238634,21.099760
2108,PKP Olszynka Grochowska,52.247780,21.106650
2109,Chłopickiego,52.245727,21.104807
2110,Osiedle Młodych,52.248395,21.097016
2111,Garwolińska,52.249936,21.091443
2112,Szaserów-Szpital,52.250229,21.087528
2113,Dwernickiego,52.248333,21.084233
2114,Mycielskiego,52.250396,21.082555
2115,RKS Orzeł,52.250421,21.078061
2116,Podskarbińska,52.249485,21.074344
2117,Mińska,52.250512,21.066443
2118,Chodakowska,52.251987,21.064924
2119,Żupnicza,52.250492,21.058950
2120,Dw.Wschodni (Lubelska),52.250296,21.052437
2121,Przeworska,52.252711,21.082849
2122,Siennicka,52.252690,21.078356
2123,Tor Kolarski,52.251935,21.073410
2124,Bukowskiego,52.230120,21.094960
2125,Cm.Ofiar Wojny,52.234507,21.158124
2126,Planetowa,52.188124,21.185248
2127,Zbaraska,52.243419,21.075250
2128,os.Wilga,52.225550,21.101142
2129,Szpital Grochowski,52.242683,21.078899
2130,os.Majdańska,52.239958,21.081632
2131,rondo Waszyngtona,52.237973,21.049968
2132,Park Skaryszewski,52.240254,21.061899
2133,Kinowa,52.241981,21.070320
2134,Grenadierów,52.243639,21.078481
2135,Walewska,52.239019,21.074632
2136,Rozłucka,52.236700,21.076461
2138,Adampolska,52.237253,21.057103
2139,Walecznych,52.234968,21.059463
2140,Stacja Krwiodawstwa,52.231651,21.061130
2141,Zwycięzców,52.233230,21.066350
2142,Brazylijska,52.230919,21.063645
2143,Afrykańska,52.225088,21.072306
2144,Wał Gocławski,52.226075,21.078744
2145,Abrahama,52.225903,21.084611
2146,Bora-Komorowskiego,52.224690,21.093344
2147,Horbaczewskiego,52.223663,21.098370
2148,Gocław,52.222140,21.102260
2149,Umińskiego,52.227090,21.093400
2150,Ateńska,52.224827,21.067015
2151,Wersalska,52.226542,21.059277
2152,Meksykańska,52.228671,21.057776
2153,Francuska,52.234531,21.053934
2154,Katowicka,52.231096,21.053841
2155,Kryniczna,52.229020,21.051540
2156,Kosodrzewiny,52.156969,21.202713
2157,Jachowicza,52.153841,21.203521
2158,Olecka,52.154272,21.209215
2159,Michalinki,52.155469,21.216139
2160,Bystrzycka,52.161493,21.214584
2161,Bartoszycka,52.162254,21.221095
2162,Wasilkowska,52.160616,21.222748
2163,Narcyzowa,52.158757,21.223785
2164,Ochocza,52.157171,21.219579
2165,Podkowy,52.159792,21.216303
2166,Nadarzyńska,52.171301,21.193704
2167,Wiesiołka,52.172034,21.186975
2168,Majerankowa,52.172371,21.181679
2169,Tawułkowa,52.172630,21.175657
2170,Draceny,52.176150,21.175908
2171,Hortensji,52.177177,21.174307
2172,Borowiecka,52.180098,21.172140
2173,Zasobna,52.183876,21.171943
2174,Mozaikowa,52.184249,21.176151
2175,Powojowa,52.184172,21.183060
2176,Tysiąclecia,52.106132,21.237821
2177,Limby,52.183381,21.195952
2178,Olchy,52.183001,21.202661
2179,Jontka,52.182869,21.206210
2180,Czołgistów,52.182620,21.212480
2181,Kwitnącej Akacji,52.182393,21.217733
2182,Izbicka-Cmentarz,52.182197,21.226970
2183,Cygańska,52.185909,21.220364
2184,Zbójna Góra,52.186657,21.224762
2185,Spadowa,52.223614,21.139354
2186,Dzielnicowa,52.221602,21.137487
2187,Klimontowska,52.217450,21.133640
2188,Lucerny,52.213774,21.132859
2189,Lebiodowa,52.205866,21.133897
2190,Kombajnistów,52.202979,21.134258
2191,Zerzeń,52.198964,21.134766
2192,Zwoleńska,52.196248,21.136254
2193,Cylichowska,52.193169,21.138433
2194,Borków,52.189811,21.140729
2195,Ośrodek Szkoleniowy,52.185312,21.144202
2196,Odrębna,52.180800,21.148356
2197,Wędkarska,52.175409,21.153364
2198,Strzygłowska,52.172031,21.154679
2199,Ogórkowa,52.164468,21.160230
2200,Podbiałowa,52.162000,21.166262
2201,Rozchodnikowa,52.159833,21.170371
2202,Rzymska,52.222015,21.063928
2203,Arabska,52.221421,21.072244
2204,Algierska,52.220967,21.082949
2205,most Siekierkowski,52.217545,21.096925
2206,Kadetów,52.211146,21.105595
2207,Wojsławicka,52.206974,21.110648
2208,Kanał Nowe Ujście,52.204095,21.113727
2209,Bronowska,52.198556,21.118732
2210,Jeziorowa,52.191381,21.123251
2211,Peonii,52.186690,21.128854
2212,Skalnicowa,52.184309,21.131893
2213,Cyklamenów,52.178691,21.139517
2214,Romantyczna,52.175335,21.147227
2215,Wodniaków,52.201516,21.128721
2216,Wiązana,52.198299,21.141518
2217,Motylkowa,52.200959,21.149696
2218,Żonkilowa,52.203008,21.158964
2219,Stężycka,52.260011,21.140060
2220,PKP Mokry Ług,52.276848,21.170321
2221,ks.Szulczyka,52.171324,21.232414
2222,Aleksandrów,52.169917,21.242213
2223,ks.Malinowskiego,52.144706,21.189801
2224,Podleśna,52.136488,21.191737
2225,Nowa Wieś,52.131402,21.195015
2226,Polna,52.127668,21.197517
2227,Świdry Małe,52.123166,21.201117
2228,Wyszyńskiego,52.119557,21.207031
2229,Drogowców,52.113590,21.214630
2230,Górki,52.108531,21.221047
2231,Świdry Wielkie,52.105852,21.233274
2232,Okrzei,52.106540,21.244102
2237,Park Miejski,52.099429,21.269672
2238,Urząd Skarbowy,52.098277,21.266205
2240,Batorego,52.101463,21.247768
2241,Olszowa,52.099796,21.258216
2242,Szpital Powiatowy,52.097751,21.264726
2244,Tomaszowska,52.181049,21.192268
2245,Lawinowa,52.173302,21.199995
2246,Gruntowa,52.165608,21.207691
2247,Trakt Lubelski-Las,52.209994,21.133361
2248,Słowackiego,52.242623,21.222672
2249,Narodowa,52.214046,21.102094
2251,Berezyńska,52.238914,21.055213
2252,os.Jantar,52.222844,21.086922
2253,pl.Przymierza,52.231180,21.056043
2255,Fieldorfa,52.220050,21.088280
2257,Rogatkowa,52.203625,21.162220
2258,Rychnowska,52.173205,21.153264
2261,Strusia,52.227192,21.149757
2262,Topograficzna,52.261874,21.173329
2263,Czerwonych Beretów,52.261567,21.178370
2264,Pielęgniarek,52.214204,21.142458
2265,Pomiechowska,52.214081,21.150991
2266,Hetmańska,52.244987,21.110917
2267,Podolska,52.244348,21.115303
2268,Szaserów,52.244282,21.117880
2269,os.Iskra,52.221206,21.097342
2270,os.Orlik,52.228010,21.088400
2271,Staszica,52.239673,21.222265
2272,Idzikowskiego,52.244252,21.262913
2273,Drobiarska,52.232288,21.251088
2274,Hipodrom,52.232897,21.224392
2275,Stara Miłosna (Ułańska),52.220796,21.243148
2276,Jagiellońska,52.245383,21.178319
2277,Brata Alberta,52.246950,21.187580
2278,Grzybowa,52.247713,21.199825
2279,Groszówka,52.247320,21.207278
2280,Rejtana,52.246682,21.213556
2281,Wesoła-Ratusz,52.246264,21.222399
2282,Armii Krajowej,52.250493,21.224337
2283,Chodkiewicza,52.250139,21.232062
2284,Wiosenna,52.249850,21.238340
2285,Wola Grzybowska,52.249637,21.242921
2286,Orla,52.249090,21.254600
2287,Puszkina,52.248611,21.258554
2288,al.Piłsudskiego,52.247561,21.265218
2291,Wawerska,52.224404,21.206019
2292,Objazdowa,52.224268,21.209881
2293,1.Praskiego Pułku,52.223870,21.222398
2294,Fabryczna,52.223580,21.229732
2295,Nizinna,52.223250,21.238322
2296,szosa lubelska,52.222943,21.248541
2297,Zakrętowa,52.215681,21.256690
2298,Majdan,52.206444,21.265248
2299,Zagórze-Sanatorium,52.198788,21.245815
2300,Hotelowa,52.222534,21.258965
2302,Rataja,52.222319,21.264819
2303,Hipolitowska,52.215873,21.315440
2304,Gwarna,52.221879,21.276777
2305,Ogrodnicza,52.221678,21.282331
2306,Wspólna (Warszawa Wesoła),52.246301,21.184151
2307,Podgórna,52.220500,21.294067
2308,Terespolska,52.218972,21.301065
2309,Konik Nowy,52.217515,21.307853
2310,Warszawska,52.213100,21.331509
2311,Wierzbowa,52.218739,21.341580
2312,PKP Halinów,52.222381,21.347918
2313,Meissnera,52.221582,21.090597
2314,Zbójnogórska,52.191732,21.181643
2315,Radość-Wodociąg,52.197666,21.175710
2316,Kolarska,52.201714,21.171672
2317,Klasztorna,52.254426,21.163204
2318,Niedziałkowskiego,52.252733,21.168051
2319,Meblowa,52.269247,21.119792
2320,Rolnicza,52.231807,21.159145
2321,Sosnowa,52.247262,21.184296
2322,Instruktorska,52.250342,21.174292
2325,Urząd Gminy,52.172681,21.293169
2326,Boryszewska,52.176860,21.292273
2328,Góraszka,52.192728,21.277973
2329,Widoczna,52.202971,21.268741
2330,Szkolna,52.170493,21.293450
2331,Pęclińska,52.171677,21.305869
2332,Spokojna,52.153528,21.323390
2335,Dziechciniec,52.149681,21.354729
2336,Malcanów,52.148020,21.368582
2337,Kotliny,52.148230,21.380381
2338,Lipowo,52.140012,21.392792
2339,Ośrodek Zdrowia,52.134510,21.411693
2340,Glinianka,52.130955,21.417399
2341,Dziechciniec-Kolonia,52.150083,21.344935
2342,Projektowana,52.164325,21.315855
2344,PKP Wesoła,52.253786,21.223641
2345,Sagalli,52.222352,21.222973
2346,Torfowa,52.218296,21.222700
2347,Marmurowa,52.216629,21.229307
2348,Pogodna,52.216165,21.238520
2349,Rumiankowa,52.216728,21.242118
2350,Wąska,52.152419,21.219832
2351,PKP Michalin,52.148245,21.223999
2352,Cicha,52.141448,21.230857
2353,PKP Józefów,52.137042,21.235180
2354,Jarosławska,52.128268,21.240180
2355,Świder-Kościół,52.122377,21.244476
2356,Świder,52.119203,21.247622
2357,Rzemieślnicza,52.111082,21.255799
2358,Orla,52.107764,21.263024
2360,Pomnik Kolei Wąskotorowej,52.080716,21.256337
2362,Gdecka,52.240900,21.101160
2364,os.Dudziarska,52.257100,21.104294
2365,Areszt Śledczy Grochów,52.255850,21.114060
2367,Sportowa,52.167309,21.295276
2368,Gródek,52.161015,21.304232
2369,Radiówek,52.153370,21.315750
2370,Szeroka,52.257713,21.122059
2371,Gruszy,52.198202,21.169198
2372,Juhasów,52.194909,21.170523
2373,Klimatyczna,52.188466,21.172576
2374,Drohobycka,52.180918,21.230699
2375,Jachtowa,52.178650,21.233886
2376,Zagórzańska,52.175322,21.231335
2377,Samorządowa,52.173661,21.229339
2378,Urocza,52.242260,21.190621
2379,Zielona,52.238765,21.191721
2380,Stefanówka,52.184030,21.305287
2381,Boryszew,52.186750,21.312704
2382,Wspólna,52.189489,21.334338
2383,Spacerowa,52.190216,21.347071
2384,Duchnów,52.191570,21.358965
2385,Sęczkowa,52.212447,21.107931
2386,Kadetów-Szkoła,52.212988,21.111006
2387,Kadetów-Kościół,52.214827,21.118672
2388,Podleśna,52.161711,21.353759
2389,Pęclin,52.168868,21.358937
2390,Wierzbowa,52.143394,21.385506
2395,Jerzego,52.267301,21.170079
2396,Buchalteryjna,52.270906,21.170490
2397,Cukrownicza,52.242618,21.123401
2399,Wybrzeże Szczecińskie,52.239705,21.041498
2400,Stoczniowców,52.220921,21.106809
2402,Zabłudowska,52.190829,21.150756
2405,Rudka,52.143796,21.326705
2406,Wólka Mlądzka,52.138554,21.333457
2407,Teofilów,52.119319,21.366412
2410,Wola Karczewska,52.127044,21.388411
2413,Terespolska,52.249407,21.070024
2414,Zasadowa,52.184281,21.171166
2415,Kompasowa,52.232743,21.083509
2416,Kakowskiego,52.230482,21.083740
2417,Bohaterewicza,52.231095,21.089723
2418,Nowaka-Jeziorańskiego,52.231230,21.094203
2419,Mokry Ług-Leśniczówka,52.280975,21.171583
2420,Pastuszków,52.285369,21.172642
2421,Łasaka,52.216762,21.109433
2422,Gawronia,52.185472,21.159537
2423,Malowana,52.186334,21.152247
2425,Dzięcioła,52.170673,21.159162
2426,Mrągowska,52.172121,21.166989
2430,Złotej Jesieni,52.170258,21.237483
2431,Brzeziny,52.199373,21.377846
2432,PKP Sulejówek,52.247102,21.275362
2435,PKP Sulejówek Miłosna,52.241567,21.297833
2436,Sulejówek Miłosna-Pomnik,52.241831,21.303435
2438,Wawer-Ratusz,52.205712,21.172025
2439,Kociszewskich,52.211037,21.210406
2440,Stara Miłosna (Graniczna),52.214506,21.217749
2441,Katiuszy,52.260476,21.160276
2442,Czwartaków,52.268904,21.145245
2449,Grawerska,52.255374,21.158599
2450,Emilii Gierczak,52.267190,21.175184
2451,Rembertów-Strzelnica,52.269113,21.179755
2452,Liliowa,52.157053,21.190658
2453,Czarnuszki,52.157967,21.174575
2454,Instytut Kardiologii,52.218709,21.173737
2455,Narutowicza-Betoniarnia,52.117065,21.359150
2456,Słoneczna,52.110867,21.384776
2457,Zdrojowa,52.115072,21.386318
2458,Kamiennej Górki,52.153978,21.353589
2459,Przewodowa,52.169269,21.156443
2460,Sitowie,52.166466,21.158270
2462,Warecka,52.241341,21.318424
2463,Cicha,52.241461,21.313486
2464,Zelwerowicza,52.241172,21.307718
2465,Mazowiecka,52.224887,21.243392
2466,Legionów,52.248977,21.271300
2467,Moniuszki,52.243338,21.269648
2469,Polna,52.181690,21.287813
2474,Długa,52.211628,21.260431
2475,Klubowa,52.198226,21.277307
2476,Biegunowa,52.202010,21.153750
2478,Mickiewicza,52.190374,21.280199
2479,Równa,52.205461,21.261643
2481,Cieplarniana,52.216387,21.233922
2483,Szafirowa,52.168818,21.183697
2484,Brodnicka,52.164190,21.188244
2485,Małowiejska,52.161235,21.190044
2486,Narutowicza,52.243074,21.211364
2487,Kościuszki,52.242417,21.217791
2502,Rechniewskiego,52.229549,21.107552
2802,Powstańców Warszawy,52.105443,21.263668
2803,Partyzantów,52.096363,21.271472
2804,Dwernickiego,52.098982,21.273684
2805,3 Maja,52.099413,21.279394
2806,Poniatowskiego,52.096959,21.286945
2807,PKP Śródborów,52.101938,21.295593
2808,Kubusia Puchatka,52.105528,21.301059
2809,Tatrzańska,52.107511,21.304129
2811,Bagnista,52.110470,21.308501
2812,Stawowa,52.112019,21.324077
2813,Świerk-Szkoła,52.112170,21.334646
2814,Batalionów Chłopskich,52.112385,21.343404
2816,Świerk,52.114225,21.351833
2821,Jałowcowa,52.124807,21.293136
2822,Teklin,52.126511,21.310694
2823,Nowa,52.130754,21.323125
2826,Młodzieżowa,52.132780,21.402941
2827,Tulipanowa,52.112440,21.316882
2828,Wyszyńskiego,52.132993,21.327053
2829,Teklin II,52.125426,21.300953
2830,Teklin-Szpital,52.121804,21.285318
2831,Kopernika,52.243133,21.305293
2832,Wilsona,52.245487,21.308952
2835,Polna,52.246274,21.312812
2836,Wyspiańskiego,52.244560,21.300561
2837,Szekspira,52.248677,21.302471
2838,Dąbrowskiego,52.251406,21.303072
2840,Długa,52.257355,21.303785
2841,Łomżyńska,52.257326,21.299751
2842,Partyzantów,52.254438,21.299008
2843,Łukasińskiego,52.252523,21.298861
2844,Krótka,52.243407,21.294942
2846,Dzielna,52.241912,21.287019
2847,Kościuszki,52.241910,21.282958
2848,Grabskiego,52.243784,21.278055
2849,Bogusławskiego,52.244458,21.273043
2850,Iwaszkiewicza,52.241946,21.271905
2851,Kasprowicza,52.241377,21.266449
2852,Mariańska,52.238033,21.257188
2853,Konwaliowa,52.237293,21.262460
2854,Kossaka,52.236968,21.271211
2855,Szklarniowa,52.234224,21.278459
2856,Przejazd,52.233257,21.285328
2857,Dobra,52.217903,21.284407
2858,Dębów,52.208266,21.286534
2859,Miłego Dnia,52.204159,21.298854
2860,Michałówek,52.203351,21.303141
2861,Zygmunta,52.101678,21.259480
2862,Bednarska,52.076922,21.246849
2863,Urząd Miasta,52.077675,21.244593
2864,Wysockiego,52.083657,21.240248
2865,Miziołka,52.087587,21.239162
2869,Os.Ługi,52.086017,21.260194
2870,Stare Miasto,52.076300,21.251125
2872,Os.Radiówek,52.154029,21.311808
2873,Nadwiślańczyków,52.153700,21.284390
2874,Majowa,52.179398,21.376166
2875,Kąck,52.175374,21.372875
2876,3 Maja,52.133780,21.229341
2879,Graniczna-Szkoła,52.145446,21.216524
2880,Jachowicza,52.144342,21.207331
2881,Nadwiślańska,52.142613,21.191073
2884,Rycice,52.135589,21.251511
2885,Bitwy Warszawskiej 1920 r.,52.143076,21.263965
2886,Mieni,52.145431,21.272499
2900,Warszawa Wschodnia,52.251390,21.053370
2901,Warszawa Stadion,52.244260,21.043840
2902,Warszawa Olszynka Grochowska,52.250120,21.105770
2903,Warszawa Gocławek,52.239041,21.132095
2904,Warszawa Wawer,52.222263,21.151090
2905,Warszawa Anin,52.213460,21.159540
2906,Warszawa Międzylesie,52.204310,21.168710
2907,Warszawa Radość,52.186160,21.186820
2908,Warszawa Miedzeszyn,52.173170,21.199770
2909,Warszawa Falenica,52.162390,21.210590
2910,Warszawa Rembertów,52.257190,21.157720
2911,Warszawa Wesoła,52.254250,21.221600
2912,Warszawa Wola Grzybowska,52.252980,21.248650
2913,Sulejówek,52.247400,21.278420
2914,Sulejówek Miłosna,52.240794,21.298122
2915,Michalin,52.148630,21.224240
2916,Józefów,52.136300,21.236520
2917,Otwock Świder,52.121300,21.251380
2918,Otwock,52.110045,21.262815
2921,Warszawa Grochów,52.255812,21.083121
3001,pl.Unii Lubelskiej,52.212264,21.018728
3002,Rakowiecka,52.209376,21.021110
3003,Dworkowa,52.205014,21.022656
3004,Morskie Oko,52.202234,21.023182
3005,Park Dreszera,52.197606,21.023818
3006,Malczewskiego,52.193965,21.024054
3007,Królikarnia,52.189315,21.024312
3008,Bukowińska,52.185930,21.024223
3009,Metro Wilanowska,52.181520,21.022030
3011,al.Lotników,52.172310,21.019512
3012,Wyścigi,52.164329,21.017053
3013,Poleczki,52.151950,21.017323
3014,Grabów,52.146720,21.017450
3015,Sójki,52.143081,21.017544
3016,Żołny,52.138447,21.017487
3017,Bogatki,52.131876,21.017773
3018,Łagiewnicka,52.126961,21.017897
3019,Pelikanów,52.122514,21.018020
3020,Kapeli,52.117087,21.018121
3021,Jagielska,52.115080,21.018190
3022,Karczunkowska,52.110688,21.018283
3023,Dąbrówka,52.105038,21.018383
3024,Trombity,52.110281,21.006081
3025,PKP Jeziorki,52.110234,20.993263
3026,Spacerowa,52.205720,21.031851
3027,Dolna,52.202134,21.034965
3028,Kostrzewskiego,52.196736,21.040019
3029,SGGW-Biblioteka,52.164335,21.045990
3030,Tor Stegny,52.189332,21.047606
3031,Mangalia,52.187334,21.049729
3032,Czarnomorska,52.184730,21.052470
3033,św.Bonifacego,52.181132,21.056268
3034,Truskawiecka,52.178763,21.058769
3035,Nałęczowska,52.174796,21.062951
3036,Instytut Neurologii,52.171994,21.065899
3037,Podbipięty,52.177904,21.029494
3038,Dominikańska,52.176919,21.035905
3039,Dolina Służewiecka,52.174554,21.043769
3040,Patkowskiego,52.172249,21.056469
3041,os.Arbuzowa,52.171016,21.061950
3042,Sobieskiego,52.169252,21.069772
3043,Królowej Marysieńki,52.167715,21.076545
3044,Wilanów,52.165008,21.084124
3045,Vogla,52.158788,21.087344
3046,Powsinek,52.150847,21.091590
3047,Pałacowa,52.147556,21.092917
3048,Czekoladowa,52.132183,21.101014
3049,Rosochata,52.126978,21.103404
3050,Przekorna,52.124865,21.102351
3051,Waflowa,52.118218,21.103422
3052,Andrutowa,52.123114,21.098371
3053,Gąsek,52.120926,21.093298
3055,Stare Kabaty,52.130482,21.084199
3056,Powsin-Park Kultury,52.116730,21.092890
3057,Bartycka,52.212080,21.046970
3058,Sielce,52.205835,21.048555
3059,Chełmska,52.201452,21.049765
3060,al.Witosa,52.196257,21.052439
3062,Gołkowska,52.192266,21.057083
3063,Limanowskiego,52.189553,21.060490
3064,Goraszewska,52.185968,21.064485
3065,Sadyba,52.181762,21.068999
3066,Wiertnicza,52.178400,21.072937
3067,Łowcza,52.174364,21.078300
3068,Kosiarzy,52.170862,21.081922
3069,Budexpo,52.212736,21.059344
3070,Figowa,52.212344,21.067313
3071,Łososiowa,52.212126,21.073541
3072,Siekierkowska,52.208792,21.077375
3075,Antoniewska,52.200613,21.077361
3076,Kaloryczna,52.198701,21.081295
3077,Ogrody Działkowe Budowlani II,52.197167,21.085133
3078,Augustówka,52.194973,21.087822
3079,EC Siekierki,52.193368,21.084006
3080,Statkowskiego,52.190773,21.083179
3082,Zawodzie,52.184521,21.080738
3083,Santocka,52.182645,21.077617
3084,Stępińska,52.206658,21.037025
3085,Iwicka,52.206586,21.042914
3086,Zakrzewska,52.202156,21.042096
3087,Bobrowiecka,52.200323,21.046160
3088,Kierbedzia,52.197701,21.046885
3089,os.Bernardyńska,52.192243,21.064382
3090,Jeziorko Czerniakowskie,52.191880,21.068054
3091,Sypniewska,52.190583,21.075717
3092,Klarysewska,52.184820,21.060860
3093,Batumi,52.180312,21.053751
3094,Stegny,52.177748,21.048756
3095,Warneńska,52.182196,21.045039
3096,Wróbla,52.173408,21.029580
3097,Noskowskiego,52.172518,21.039034
3098,Nowoursynowska,52.169835,21.039720
3099,Arbuzowa,52.167594,21.043792
3100,SGGW-Rektorat,52.162465,21.047818
3101,Chopina,52.078089,21.085004
3102,Tango,52.153967,21.011871
3104,Wyczółki,52.158250,21.002380
3105,Wiśniowa,52.208784,21.015402
3106,Madalińskiego-Szpital,52.204268,21.015843
3108,Krasickiego,52.196755,21.020043
3109,Wielicka,52.189456,21.019333
3110,Ksawerów,52.186370,21.018470
3111,os.Domaniewska,52.182860,21.020411
3112,Modzelewskiego,52.182925,21.014002
3113,Smoluchowskiego,52.179274,21.013942
3114,Metro Wierzbno,52.188551,21.017226
3115,Telewizja Polska,52.189009,21.012806
3116,Samochodowa,52.188926,21.008580
3117,Konduktorska,52.200955,21.031341
3118,Kielecka,52.206813,21.003722
3120,Ursynów Płn.,52.162080,21.038130
3121,Strzeleckiego,52.156120,21.045000
3122,Teligi,52.154363,21.049208
3123,Nugat,52.155812,21.051899
3124,Kopcińskiego,52.157871,21.055669
3125,Łowicka,52.202500,21.005726
3126,Tagore'a,52.195326,21.008220
3127,Metro Ursynów,52.161608,21.027441
3129,Megasam,52.158081,21.021215
3130,Pięciolinii,52.155819,21.023741
3131,Dunikowskiego,52.154350,21.031900
3132,Metro Stokłosy,52.156487,21.035185
3133,Herbsta,52.150832,21.027393
3134,Centrum Onkologii,52.150099,21.033733
3136,Ursynów Płd.,52.153920,21.039330
3137,Magellana,52.155087,21.042207
3139,Miklaszewskiego,52.147220,21.042800
3140,Stryjeńskich,52.141620,21.045460
3141,Braci Wagów,52.144275,21.049540
3142,Natolin Płn.,52.146814,21.054619
3144,Szolc-Rogozińskiego,52.149916,21.053264
3145,Migdałowa,52.144330,21.057489
3146,Lanciego,52.140986,21.061805
3147,Europejska,52.160745,21.092919
3148,Vogla-Morysin,52.161235,21.101540
3149,Ruczaj,52.161273,21.104913
3150,Syta,52.165583,21.108931
3151,Ciszewskiego,52.158962,21.050545
3152,Glebowa,52.179462,21.101836
3153,Lercha,52.162110,21.114493
3154,Zawady,52.159458,21.118741
3155,Metryczna,52.156140,21.126343
3156,Bartyki,52.156592,21.128166
3157,Grabalówki,52.151260,21.132814
3158,Gratyny,52.147009,21.136584
3159,Kępa Zawadowska,52.145788,21.138184
3160,Mysiadło,52.098588,21.018597
3161,Energetyczna,52.087367,21.019278
3162,Lamina,52.081763,21.025772
3163,Szkolna,52.076930,21.026045
3164,Chyliczkowska-Technikum,52.076512,21.036035
3165,Kusocińskiego,52.079869,21.021417
3167,Urząd Miasta,52.073121,21.027167
3169,PKP Piaseczno,52.065282,21.019095
3170,Zalesie Dolne,52.056779,21.008163
3171,Zalesinek,52.051816,20.998731
3172,Gołków-Letnisko,52.049325,20.989720
3174,Zielona,52.076930,21.049349
3175,Chylice,52.078489,21.063915
3176,Jasna,52.077915,21.071285
3177,Pańska,52.077998,21.078279
3178,Tabita,52.078137,21.088157
3179,Skolimów,52.077302,21.101488
3180,pl.Sportowy,52.077869,21.110081
3181,Piasta,52.078499,21.118088
3182,Stocer,52.080300,21.113750
3183,Park Zdrojowy,52.084256,21.119725
3184,Sobieskiego,52.088484,21.121453
3185,CH Stara Papiernia,52.090737,21.122549
3186,Osiedle Mirków,52.097502,21.135279
3187,Mirkowska,52.102573,21.125513
3188,Klarysew,52.102233,21.114393
3190,Mandarynki,52.144639,21.063852
3191,Iwiczna,52.091655,21.018771
3192,Mirków-Szkoła,52.099405,21.130917
3193,Polna,52.094747,21.117300
3194,Małcużyńskiego,52.139057,21.055169
3195,os.Wyżyny,52.137584,21.050251
3196,Zaściankowa,52.168401,21.107369
3197,Jara,52.173436,21.108047
3198,Siedliskowa,52.177033,21.106317
3199,Zaolziańska,52.160773,21.021016
3200,Belgradzka,52.141828,21.066458
3201,Lokajskiego,52.138791,21.069500
3202,Raabego,52.136014,21.061193
3203,Małej Łąki,52.134517,21.052970
3206,SGGW-Klinika,52.160392,21.049924
3207,Grzegorzewskiej,52.152273,21.056524
3208,Płaskowickiej,52.148486,21.060231
3209,Kiepury,52.135980,21.072786
3215,Gołków-Wieś,52.044960,20.977070
3216,Zielona,52.041812,20.968892
3217,Ogrodowa,52.040075,20.954484
3218,Głosków-Szkoła,52.036891,20.943750
3219,Milenium,52.032754,20.951679
3220,Głosków-Zielone,52.029250,20.959261
3221,Głosków-Letnisko,52.035101,20.963904
3222,Rozjazd Oborski,52.089660,21.107358
3223,Bydgoska,52.085559,21.094194
3225,Chyliczki,52.084449,21.063971
3226,Książąt Mazowieckich,52.082016,21.048775
3227,Markowskiego,52.080317,21.042342
3228,Metro Pole Mokotowskie,52.208704,21.007486
3229,Madalińskiego,52.202810,21.010190
3230,Metro Racławicka,52.200024,21.011496
3231,Odyńca,52.195580,21.013696
3232,Polskie Radio,52.192868,21.015003
3233,Joliot-Curie,52.192534,21.011038
3234,Stefana Batorego,52.210460,21.005820
3235,św.A.Boboli,52.209619,21.001208
3237,Kulskiego,52.201088,21.000248
3238,Wołoska-Szpital,52.198138,21.001088
3239,Wołoska,52.194797,21.001437
3240,Woronicza,52.188065,21.001754
3241,Konstruktorska,52.184843,21.001877
3242,Domaniewska,52.182702,21.001947
3243,rondo Unii Europejskiej,52.177868,21.003850
3244,Cybernetyki,52.174426,21.002545
3245,Gotarda,52.171229,21.005798
3246,Orzycka,52.171213,21.008445
3247,Bartłomieja,52.169752,21.008972
3248,Bełdan,52.174184,21.013580
3249,Instytut Fizyki,52.177441,21.007249
3250,Postępu,52.178861,20.998383
3251,Wynalazek,52.180152,20.994128
3254,PKP Służewiec,52.181179,20.986991
3255,Miłobędzka,52.196523,20.993544
3256,Spartańska,52.191402,20.995411
3257,Instytut Reumatologii,52.191040,20.995519
3258,Zajezdnia Woronicza,52.188828,20.997162
3259,Maklakiewicza,52.188762,20.993748
3260,Racjonalizacji,52.185473,20.993725
3261,Stolbud,52.184336,20.997646
3263,rondo Żabczyńskiego,52.175610,20.994890
3265,Obrzeżna,52.172093,20.999004
3266,Jadźwingów,52.171209,21.004362
3267,Bokserska,52.169394,20.996422
3268,Taborowa,52.167054,20.992964
3269,Jurajska,52.162390,20.992240
3270,Areszt Śledczy Służewiec,52.159830,20.992320
3275,Julianów,52.100305,21.053498
3278,Ogrody Działkowe Wilanówka,52.163188,21.107832
3279,Metro Służew,52.173342,21.026892
3280,Metro Imielin,52.150203,21.046395
3281,Metro Natolin,52.140012,21.058608
3282,Metro Kabaty,52.131664,21.065653
3283,Mielczarskiego,52.131232,21.059360
3284,Rybałtów,52.131677,21.055935
3285,Południowa,52.096165,21.122962
3286,Rakowiecka-Sanktuarium,52.205211,20.999071
3287,Wąwozowa,52.132730,21.075735
3288,Zaruby,52.132147,21.072043
3289,Hołubcowa,52.155997,21.000094
3290,Poloneza,52.154506,21.008114
3291,Makolągwy,52.145318,21.026627
3292,CH Ursynów,52.142495,21.025766
3293,Wiolinowa,52.158374,21.030624
3294,Zakamarek,52.130390,21.115990
3295,Latoszki,52.131678,21.128368
3296,Rosy,52.131497,21.135234
3297,Okrzeszyn,52.129290,21.145416
3298,Koncertowa,52.163555,21.026887
3299,Szpital Południowy,52.145364,21.037423
3300,Hospicjum Onkologiczne,52.143611,21.038237
3301,Malinowskiego,52.149862,21.038194
3304,Borowa,52.106220,21.113243
3305,Ogród Botaniczny,52.105109,21.098748
3307,Lipowa,52.039302,20.949167
3308,Siekierki-Sanktuarium,52.206660,21.082960
3309,Karczocha,52.173729,21.049878
3311,Wilanówka,52.125973,21.142068
3312,Kępa Okrzewska,52.131951,21.149732
3313,Kępa Okrzewska-Cmentarz,52.135004,21.152888
3314,os.Konstancja,52.109083,21.112867
3315,Wczasowa,52.105787,21.106345
3317,Tuzinowa,52.185340,21.098213
3318,Spiralna,52.185806,21.094393
3319,Łucznicza,52.181714,21.088688
3320,Wojska Polskiego,52.075002,21.021853
3321,Jarząbka,52.073713,21.015491
3323,Małe Siekierki,52.203072,21.066729
3324,Ogrody Działkowe Czerniaków,52.202004,21.060112
3325,Beethovena,52.194471,21.048876
3326,Do Fortu,52.197320,20.989388
3327,Cm.Południowy-Brama Płd.,52.056423,20.897921
3328,Cm.Południowy-Brama Wsch.,52.057422,20.905383
3329,Kuleszówka,52.059849,20.911594
3330,Orzechowa,52.054763,20.924684
3331,Rybna,52.048733,20.932283
3332,Żwirowa,52.068430,20.961402
3333,Pileckiego,52.140973,21.040101
3334,os.Patio,52.127026,21.096316
3335,Pomorska,52.063120,21.015673
3336,Kabaty-STP,52.126475,21.065745
3337,Wałbrzyska-Cmentarz,52.173472,21.035863
3338,Bacha,52.169392,21.026183
3339,Ładna,52.044922,20.951397
3342,Osmańska-DHL,52.150832,20.994766
3343,Osmańska,52.156238,20.995709
3344,Agatowa,52.094632,21.032745
3345,Wilanowska,52.093443,21.037317
3346,Komety,52.096360,21.040747
3347,Magnolii,52.099294,21.044608
3348,Kameralna,52.102046,21.049580
3350,Bąkówka,52.040855,20.955935
3351,Robercin,52.048709,20.943513
3352,Osiedlowa,52.098071,21.027562
3353,Oś Królewska,52.164036,21.069852
3354,Świątynia Opatrzności Bożej,52.159523,21.072934
3355,os.Grapa,52.087680,21.124374
3356,Od Lasu,52.078899,21.133065
3357,Łyczyńska,52.063141,21.150806
3358,Słomczyn-Szkoła,52.060908,21.153696
3359,Jabłoniowa,52.057160,21.159795
3360,Turowice,52.051031,21.166826
3361,Kawęczyn,52.046030,21.172421
3362,Kawęczyn II,52.038561,21.176589
3363,Brześce,52.029957,21.184388
3364,Wólka Załęska,52.011616,21.195242
3365,Ku Słońcu,52.002614,21.197251
3366,Moczydłów,51.998883,21.199839
3367,Wyszyńskiego,51.994015,21.209670
3368,Rynek,51.981621,21.217428
3369,Pijarska,51.986764,21.214091
3370,Dworcowa,52.072559,21.015870
3373,Solec,52.030849,21.108180
3376,Tomice,52.010055,21.153472
3377,Kąty,52.002203,21.170586
3378,Mikówiec,51.996833,21.182352
3382,Korbońskiego,52.130150,21.097821
3383,Komputerowa,52.176507,20.993018
3384,Nadarzyńska,52.071978,21.023133
3386,Wiechy,52.128503,21.138110
3387,Cyraneczki,52.100264,21.047595
3388,Ku Wiśle,52.212210,21.063621
3389,Sągi,52.138788,21.144639
3390,Bytnara,52.191482,21.001540
3391,Sarmacka,52.158179,21.082219
3392,Bruzdowa-Kościół,52.144775,21.141974
3393,Prętowa,52.142552,21.144759
3394,Calowa,52.141883,21.148194
3395,Farbiarska,52.122415,21.013603
3396,Jeziorki Płn.,52.123759,21.007658
3397,Sarabandy,52.123196,21.002765
3398,Kórnicka,52.124074,20.998397
3399,PKP Dawidy,52.126445,20.993416
3400,os.Kabaty,52.128946,21.068699
3403,Warchałowskiego,52.144223,21.043705
3407,Dawidy,52.130508,20.985192
3409,os.Nowy Mokotów,52.184947,20.988576
3411,Domaniewska Office Park,52.183188,20.993632
3412,Park Postępu,52.183200,20.998941
3413,Taneczna,52.152459,21.014953
3414,Samsonowska,52.149503,21.015323
3415,Kondracka,52.146450,21.015266
3416,Flamenco,52.144273,21.011310
3420,Łukaszczyka,52.147219,21.029412
3421,Wiedeńska,52.130858,21.094473
3422,Rów Natoliński,52.131025,21.089504
3423,Rosnowskiego,52.130334,21.078922
3424,Pozytywki,52.110492,21.012539
3425,Buska,52.177598,21.068306
3426,Przy Bażantarni,52.137870,21.065139
3427,"Batalionu AK ""Bałtyk""",52.205474,21.064010
3428,"Grupy AK ""Północ""",52.207915,21.059813
3429,Betoniarnia,52.183291,21.084910
3431,Kościelna,52.075478,21.025676
3433,Langego,52.183342,21.008791
3437,Strumykowa,52.085052,21.044676
3438,Urbanistów,52.089170,21.049032
3439,Srebrnych Świerków,52.097485,21.053166
3440,Nadziei,52.091855,21.050830
3441,Warszawska,52.111899,21.110847
3443,Łukowa,52.175571,21.042018
3446,Wenus,52.095398,21.052470
3448,Dworska,52.084863,21.069798
3449,Długa,52.078361,21.068321
3451,Wyględowska,52.192615,20.985246
3453,Etiudy Rewolucyjnej,52.189090,20.989582
3454,Indiry Gandhi,52.141513,21.033170
3455,Pijarska-Osiedle,51.986131,21.212442
3456,Instytut Hematologii,52.144263,21.034197
3457,Baniocha-Marki,52.016200,21.140192
3459,Adamowicza,51.992616,21.191374
3460,Pijarska-Basen,51.988908,21.199533
3462,Tukanów,52.079707,21.008498
3463,Pawia,52.076337,21.012038
3464,Targowisko,52.074249,21.011946
3465,Nawłocka,52.109903,20.999842
3466,os.Pozytywny Mokotów,52.185516,20.998250
3467,"Oczyszczalnia ""Południe""",52.182791,21.098804
3468,św.U.Ledóchowskiej,52.154943,21.072035
3470,Bergamotki,52.179020,21.044354
3474,Kalwaryjska,51.981755,21.211427
3477,Os.Elektra,52.091476,21.032950
3478,Ławki,51.947201,21.074459
3479,Polna,51.951400,21.083660
3480,Goworka,52.211067,21.022495
3481,Brzoskwiniowa,52.031481,20.917686
3483,Główna,51.946860,21.068328
3484,Klonowa,51.968163,21.016360
3489,Sielecka,52.206622,21.040337
3601,Kabaty,52.131768,21.065504
3602,Natolin,52.141306,21.056378
3603,Imielin,52.149447,21.046045
3604,Stokłosy,52.156545,21.034098
3605,Ursynów,52.162304,21.027670
3606,Służew,52.172935,21.026417
3607,Wilanowska,52.182132,21.023061
3608,Wierzbno,52.190168,21.016709
3609,Racławicka,52.199222,21.012176
3610,Pole Mokotowskie,52.207304,21.008418
3700,Dębowa,51.971204,21.046152
3701,Zgoda,52.075420,21.029330
3703,Główna,51.952708,21.041207
3704,Biały Ług,51.948640,21.053941
3705,Zagórna,51.949770,21.067745
3706,Dobra,51.953930,21.075720
3707,Akacjowa,51.960305,21.075126
3709,Czarnej Olchy,51.942905,20.986569
3710,Wojewódzka,52.014381,20.901705
3711,Zawadzka,52.018977,20.904431
3712,Ciszyca II,52.106397,21.178216
3716,Dębówka,52.049924,21.190860
3718,Parcela II,52.065824,21.154401
3719,Parcela I,52.069702,21.153972
3720,Wólka Dworska,52.015047,21.201102
3721,Wólka Dworska-Wisła,52.018262,21.219797
3722,Wiślana,52.033467,21.211005
3723,Podłęcze,52.037512,21.203732
3724,Oborska,52.079573,21.099698
3727,Kawęczyn Dolny,52.049687,21.174242
3728,Dębówka II,52.044714,21.196021
3730,Polna,52.058790,21.046897
3734,Starochylicka,52.077650,21.058000
3735,Trzeciakowskich,52.071516,21.056483
3736,Królika,52.066902,21.052412
3737,Gołębia,52.063069,21.051133
3738,Stefanów,52.052082,21.061766
3739,Pilawa,52.038863,21.087817
3740,Brzózek,52.027230,21.088990
3741,Kasztanowa,52.020267,21.090173
3742,Dobiesz,52.001417,21.110889
3743,Ogrodowa,51.990655,21.109292
3744,Akacjowa,51.982038,21.114840
3745,Cendrowice,51.967449,21.132874
3746,Sobików,51.961814,21.133657
3747,Główna,52.054831,21.041394
3749,Podłęcze II,52.025454,21.218491
3750,Główna,52.039169,20.996150
3751,Jazgarzew-Szkoła,52.037321,20.996657
3752,Łbiska,52.023855,21.002932
3753,Pęchery,52.008514,21.001185
3756,Zachodnia,52.049281,21.005855
3757,Nowinek,52.015925,21.040529
3759,Julianów,51.953723,21.096734
3760,Obręb II,51.954991,21.107891
3762,Kolonia Sobików,51.970946,21.155129
3763,Krzaki Czaplinkowskie,51.974599,21.173977
3764,Marianki,51.980997,21.190697
3765,Cmentarz,51.984617,21.195740
3767,Łubna,52.033953,21.122180
3768,Szymanów,52.043095,21.114253
3769,Baniocha-Centrum,52.022658,21.126276
3771,Łbiska-Szkoła,52.019633,21.005610
3772,Stadion,51.971116,21.213828
3773,Czersk-Zamek,51.959091,21.231723
3774,Warecka,51.955603,21.224429
3775,Przyborowie,51.954391,21.213160
3776,Szpruch,51.943763,21.212931
3777,Linin-Osiedle,51.938868,21.198636
3778,Linin,51.938129,21.176928
3779,Wincentów I,51.940895,21.165721
3780,Wincentów II,51.943033,21.154763
3781,Wspólna,51.946957,21.154792
3782,Czaplinek II,51.956334,21.135236
3783,Czachówek-Szkoła,51.959948,21.088211
3784,Czarny Las,51.974601,21.105418
3785,Czaplinek I,51.948906,21.137742
3786,Dobiesz II,52.005703,21.107155
3787,Okrzewska I,52.121753,21.149433
3788,Obórki,52.120917,21.165828
3789,Obórki-Wał,52.121198,21.172814
3790,Kępa Oborska I,52.128294,21.166880
3791,Kępa Oborska II,52.125004,21.154916
3793,Aleja Bzów,52.099130,21.032931
3794,Dzikiej Róży,52.100770,21.035456
3795,Julianowska-Cmentarz,52.080643,21.039816
3796,Górna,52.036936,20.990324
3797,Wólka Pęcherska,52.030878,20.981161
3798,Anemonów,52.018220,20.969549
3800,Leśna,52.071601,20.977565
3801,Łoziska,52.069477,20.985859
3802,Orężna,52.069514,20.991367
3804,Kościół,52.027941,20.958236
3805,POD Głosków,52.022285,20.955717
3806,Runów Osada,52.015296,20.949473
3807,Runów Osada II,52.010337,20.944818
3808,Henryków-Urocze,51.999783,20.936799
3809,Gromadzka,51.994317,20.934948
3810,Kościół,52.042210,20.994250
3811,Waniliowa,52.070048,20.996976
3812,Imbirowa,51.995499,20.929592
3813,Jesówka,52.039236,21.012304
3814,Przebudzenia Wiosny,52.031933,21.019838
3815,Koralowych Dębów,52.028220,21.029130
3816,Wiekowej Sosny,52.027310,21.036150
3817,Wichrowa,52.036562,21.015687
3818,Łąkowa,52.000609,21.044947
3819,Cmentarz,52.040526,21.000113
3820,Rosy,51.998194,20.922779
3821,3 Maja,52.001550,20.914540
3822,OSP Złotokłos,52.003859,20.908685
3824,Runowska,52.011300,20.899750
3825,Ogrodowa,52.023329,20.907658
3826,Sadowa,52.028710,20.913456
3827,Baszkówka,52.035972,20.923265
3828,Wierzbowa,52.037160,20.931673
3829,Graniczna,52.096594,21.005650
3830,os.Kwiatowa,52.096341,21.001308
3831,Przebiśniegów,52.094765,21.001097
3833,Szkoła,52.092172,21.001644
3834,PKP Nowa Iwiczna,52.090358,20.996896
3835,Główna,52.052748,20.986318
3836,Północna,52.056359,20.983197
3837,Zaleśna,52.059485,20.980290
3838,Bobrowiecka,52.058123,20.973571
3839,Bajeczna,52.059731,20.966939
3840,Bobrowiec,52.065996,20.961952
3841,Okrąg,52.096328,21.009605
3842,PKP Zalesie Górne,52.027058,21.039962
3843,Bielawa-Pętla,52.108858,21.141464
3844,Bielawa I,52.108798,21.135024
3846,Ogrody Bielawy,52.108032,21.130247
3847,Habdzin I,52.094885,21.153270
3848,Habdzin II,52.093990,21.159425
3849,Habdzin III,52.097539,21.164736
3850,Habdzin IV,52.092381,21.178007
3851,Łęg,52.091928,21.184820
3852,Czernidła,52.088537,21.190693
3853,Gassy,52.083128,21.197951
3854,Gassy-Pętla,52.079799,21.201929
3855,Anusin,52.094839,21.170936
3856,Opacz-Szkoła,52.102655,21.165957
3857,Sadowa,52.005858,21.039275
3858,Opacz,52.104126,21.167862
3860,Czarnów,52.056575,21.097867
3861,Starego Dębu,52.061133,21.098742
3862,Cmentarz,52.068435,21.099867
3863,Cedrowa,52.071508,21.099296
3865,Kazimierzowska,52.076477,21.098448
3866,Obory-Pałac,52.083296,21.141999
3867,Obory,52.080852,21.147341
3868,Baczyńskiego,52.075173,21.153409
3869,Olszyna Łyczyńska,52.072539,21.159075
3870,Grzybowska,52.067969,21.164866
3871,Cieciszew-OSP,52.060747,21.174640
3872,Żwirowa,52.058857,21.165820
3873,Słomczyn-Kościół,52.060146,21.159120
3874,Łyczyn,52.064257,21.151750
3875,Kawęczynek II,52.047428,21.149076
3876,Kawęczynek I,52.046998,21.137158
3877,Topolowa,52.049345,21.135154
3878,Borowina III,52.051215,21.126884
3879,Borowina II,52.052409,21.117067
3880,Borowina I,52.053323,21.111978
3881,ZGK,52.072954,21.117011
3882,Witwickiego,52.076080,21.117457
3883,Leśnych Boginek,52.021806,21.041006
3884,Słowicza,52.009418,21.039692
3885,Parkowa,51.998917,21.038341
3886,Słoneczna,51.986972,21.037396
3887,Piskórka,51.988894,21.003349
3888,Leśna,51.976496,21.010854
3889,Złota,51.957376,21.026440
3890,Ogrodowa,51.949224,21.017102
3891,Północna,51.945854,20.999584
3892,Działkowa,51.944403,20.990264
3893,Czołchańskiego,51.940756,20.961221
3895,Długa,52.000193,21.050611
3896,Graniczna,51.994310,21.051343
3897,Kasztanowa,51.991032,21.051321
3898,Kędzierówka,51.981366,21.039217
3899,Uwieliny-Szkoła,51.974514,21.041578
3901,Warszawa Służewiec,52.181086,20.987108
3902,Warszawa Dawidy,52.128993,20.991166
3903,Warszawa Jeziorki,52.109615,20.993315
3904,Nowa Iwiczna,52.089649,20.995742
3905,Piaseczno,52.066943,21.016958
3950,Grochowa,52.003927,20.985106
3952,Ogrodowa,52.103381,21.040399
3953,Cieciszew-Las,52.063932,21.170047
3954,Pieczyska,51.921869,21.019657
3955,Zadębie,51.935408,21.012922
3956,Okrzeszyn II,52.126809,21.149014
3957,Babiego Lata,51.963020,21.061868
3959,Obręb,51.952779,21.115688
3960,"Siedzikówny ""Inki""",52.071340,21.009853
3961,Centrum Rehabilitacji,52.076688,21.124791
3962,Dom Rencisty PAN,52.074455,21.123551
3963,Sue Ryder,52.068886,21.116246
3964,Słoneczników,52.010759,20.963837
3965,Prosta,51.956999,21.150658
3966,Dębówka,51.960002,21.158351
3968,Czaplin,51.952600,21.156811
3969,Słomczyn,52.052573,21.154715
3970,Os.Elsam,52.074622,21.129252
3971,Bronisławów,51.967222,21.083652
3972,Jarzębinowa,51.944549,21.012139
3978,Nowe Wągrodno,51.945100,21.035480
3980,Modrzewiowa,51.961665,21.067635
3983,Wrzosowa,52.061290,21.026809
3984,Świętojańska,52.061395,21.030723
3986,Majowy Zakątek,52.062586,21.034400
3989,Leśna,51.942107,20.979428
3990,Klonowa,51.957318,21.076539
3991,Cieciszew-Stary Kościół,52.059767,21.175587
4001,pl.Zawiszy,52.225368,20.991867
4002,Ochota-Ratusz,52.222508,20.986632
4003,pl.Narutowicza,52.220396,20.984985
4004,Och-Teatr,52.214723,20.979960
4005,Bitwy Warszawskiej 1920 r.,52.211521,20.977267
4006,Dickensa,52.205955,20.972424
4007,Korotyńskiego,52.202141,20.969024
4008,PKP Rakowiec,52.197993,20.965464
4009,1 Sierpnia,52.195882,20.963512
4010,Włochy-Ratusz,52.193603,20.961425
4011,Hynka,52.190665,20.958908
4012,Krakowiaków,52.184943,20.953668
4013,Lipowczana,52.183274,20.951596
4014,Instytut Lotnictwa,52.178724,20.946930
4015,P+R Al.Krakowska,52.176099,20.943806
4016,Szyszkowa,52.171967,20.939599
4018,Stoicka,52.167477,20.934961
4019,Na Skraju,52.163770,20.930740
4020,Olszowa,52.160570,20.936780
4021,Rybna,52.159036,20.941687
4022,Przelotowa,52.156691,20.950580
4023,Ogrody Działkowe Na Skraju,52.156302,20.959604
4024,Schronisko dla Zwierząt,52.155913,20.963209
4025,Ogrody Działkowe Paluch,52.153418,20.965291
4026,Paluch,52.151714,20.965035
4027,CH Blue City,52.212038,20.954871
4028,Raszyńska,52.219861,20.989364
4029,Pomnik Lotnika,52.215562,20.988137
4030,Banacha-Szpital,52.209624,20.987418
4031,Uniwersytet Medyczny,52.204773,20.985773
4032,Pruszkowska,52.200788,20.984391
4033,Rakowiec,52.197917,20.983413
4034,Baleya,52.195621,20.982670
4035,Novotel,52.190711,20.980990
4036,Leżajska,52.188542,20.980224
4037,Sasanki,52.182674,20.978309
4038,Komitetu Obrony Robotników,52.178995,20.978165
4039,Ośrodek Wojskowy,52.174773,20.979166
4042,Białobrzeska,52.221786,20.978319
4043,Grzymały-Sokołowskiego,52.219953,20.971861
4044,Dw.Zachodni,52.218142,20.967070
4046,Śmigłowca,52.210414,20.950296
4047,PKP WKD Al.Jerozolimskie,52.205760,20.943216
4048,Popularna,52.201614,20.937159
4049,Łopuszańska,52.196661,20.929963
4051,Berestecka,52.212562,20.953480
4052,pl.Starynkiewicza,52.226023,20.994585
4053,Janki Małe,52.128990,20.883550
4055,Wolica,52.119182,20.868611
4056,Długa,52.113839,20.856590
4057,Paszków,52.110976,20.833273
4059,Kajetany,52.092431,20.814249
4060,Gołębia,52.085612,20.825322
4061,Rolna,52.081660,20.831572
4062,POD Kajetany,52.077804,20.837356
4063,Szamoty,52.067697,20.843775
4064,pl.Szwedzki,52.132598,20.895185
4065,Działkowa,52.129738,20.897165
4066,Nowy Sękocin,52.124845,20.895238
4067,Stary Sękocin,52.111080,20.889889
4068,Sękocin Las,52.104335,20.887197
4069,Podleśna,52.093301,20.882991
4070,Łazy,52.082796,20.878708
4071,Radiostacja Łazy,52.075229,20.875716
4072,Marysin,52.067933,20.872853
4073,Wygoda,52.059673,20.869620
4074,Kolonia Warszawska,52.052752,20.866925
4075,Leszczynka,52.047725,20.864959
4076,Mroków,52.039412,20.861701
4077,Graniczna,52.025960,20.876550
4078,POD Szczaki,52.022233,20.880306
4079,Szczaki,52.011366,20.891043
4081,Na Bateryjce,52.213133,20.960807
4082,al.Bohaterów Września,52.211254,20.960371
4083,Modra,52.089017,20.819945
4084,Astronautów,52.184561,20.974970
4085,Radarowa,52.188116,20.964077
4086,Nowotyska,52.196869,20.894554
4087,Orzechowa,52.191881,20.949257
4088,Przedpole,52.192768,20.944688
4089,WKD Raków,52.194350,20.936086
4090,Zajezdnia Kleszczowa,52.196522,20.924876
4091,Dojazdowa,52.198162,20.920010
4093,Zapustna,52.195583,20.910608
4094,Dzieci Warszawy,52.192928,20.908758
4095,Szancera,52.194886,20.899684
4096,pl.Tysiąclecia,52.193713,20.890660
4099,Spisaka,52.189394,20.884608
4100,Malinowa,52.193734,20.883541
4102,Techników,52.204327,20.923390
4103,Płużańska,52.207103,20.924960
4104,Instalatorów-KAM,52.198139,20.958632
4106,Instalatorów,52.200351,20.949028
4107,Skorochód-Majewskiego,52.205066,20.973884
4108,Banacha,52.209911,20.980398
4110,Sosnkowskiego,52.190021,20.889875
4111,Jasielska,52.198319,20.979404
4112,Mołdawska,52.201854,20.979279
4113,Wiślicka,52.204008,20.975571
4114,Salomea,52.187443,20.911181
4116,Hala Kopińska,52.217204,20.978082
4117,Rokosowska,52.213787,20.973936
4118,Opaczewska,52.209905,20.970531
4119,Szczęśliwice,52.208080,20.963905
4120,Urbanistów,52.207347,20.968261
4121,Wawelska,52.216846,20.981885
4122,al.Wielkopolski,52.216514,20.995427
4123,Adamieckiego,52.193649,20.895804
4125,Skoroszewska,52.193496,20.903779
4126,CH Reduta,52.211598,20.949379
4127,Gierdziejewskiego,52.199055,20.878498
4128,Posag 7 Panien,52.201620,20.874220
4129,PKP Ursus Płn.,52.205823,20.888578
4130,Regulska,52.183526,20.870352
4131,Starodęby,52.184351,20.899557
4134,Piastowska,52.187928,20.873528
4135,Władysławów,52.063324,20.920754
4136,Graniczna,52.099700,20.899140
4137,Hale Banacha,52.208600,20.974486
4138,Norwida,52.173829,20.852935
4140,Niemcewicza,52.221266,20.983932
4141,Ogród Działkowy im.Warneńczyka,52.184220,20.960960
4143,Drzewieckiego,52.181438,20.973909
4144,Wirażowa,52.177425,20.984787
4146,PKP Okęcie,52.166564,20.985320
4147,Terminal Cargo,52.158039,20.986509
4149,PKP Gołąbki,52.207880,20.863610
4150,Centrum Mody,52.102134,20.826548
4152,Lindleya,52.223410,20.996509
4153,NIK,52.218932,20.999097
4154,Szczęśliwicka,52.213619,20.969127
4155,Młyn,52.160751,20.927541
4157,Sportowa,52.154305,20.920873
4158,Kościół,52.150613,20.916971
4159,Puchały,52.146120,20.911152
4160,Aleja Hrabska,52.144193,20.908666
4161,Falenty-Pałac,52.138570,20.919580
4162,Falenty-Osiedle,52.136836,20.923372
4163,Falenty Nowe,52.133354,20.919538
4166,Janki,52.138560,20.901120
4167,Rybie,52.149620,20.936412
4168,Promyka,52.146801,20.945691
4169,Objazdowa,52.145155,20.953965
4170,Spółdzielnia,52.136947,20.971243
4171,Długa,52.134210,20.974620
4172,Baletowa,52.133358,20.979230
4173,Łady-Szkoła,52.127348,20.961300
4174,Łady,52.125486,20.955075
4175,Nowy Podolszyn,52.121845,20.947660
4176,Podolszyn,52.119052,20.944127
4177,Kwiatów Polnych,52.129868,20.979860
4178,Boryny,52.124258,20.979564
4179,Miklaszewskiego,52.121155,20.979390
4180,Starzyńskiego,52.117536,20.979220
4181,Zamienie,52.112843,20.979090
4182,Zgorzała,52.111206,20.985850
4183,WKD Opacz,52.180676,20.905404
4184,Badylarska,52.177149,20.910740
4185,Henryka Probusa,52.204490,20.865890
4190,Szeroka,52.032362,20.822168
4193,Kościuszki,52.165992,20.806231
4194,al.Wojska Polskiego,52.159733,20.801472
4195,Os.Staszica/Pętla,52.153900,20.792613
4196,Jasna,52.157074,20.793499
4198,Okęcie Business Park,52.183378,20.965661
4199,Stawy,52.204454,20.921435
4200,Lotnisko Chopina-Odloty,52.172074,20.973369
4202,Terminal Autokarowy,52.168737,20.974537
4205,Bełzy,52.195262,20.874360
4206,Stadion,52.150531,20.929213
4207,Orląt Lwowskich,52.190944,20.865595
4209,Prażmowska,52.192921,20.879202
4210,Kuźnicy Kołłątajowskiej,52.188925,20.877188
4211,Ursus-Sanktuarium,52.191627,20.861249
4212,Parowcowa,52.211792,20.913640
4213,Wałowicka,52.208744,20.913925
4214,PKP Włochy,52.205261,20.915649
4215,Przepiórki,52.203095,20.904685
4216,Ursus-Ratusz,52.201675,20.896170
4217,PKP Ursus,52.196616,20.885155
4218,Lalki,52.197022,20.880747
4219,Śmigielska,52.198247,20.870555
4220,Władysława Hermana,52.195240,20.863170
4221,Ursus-Niedźwiadek,52.190287,20.862549
4222,Rybnicka,52.207546,20.904879
4223,Szuberta,52.208249,20.900539
4224,Nowe Włochy,52.208799,20.895459
4225,Sympatyczna,52.209582,20.920463
4226,Królowej Bony,52.198878,20.866893
4228,Wojciechowskiego,52.195927,20.879662
4229,Lelewela,52.191344,20.854877
4230,Kino Baśń,52.186661,20.844727
4231,Traugutta,52.184709,20.840597
4232,Dąbrowskiego,52.189395,20.840323
4233,Toruńska,52.192625,20.839175
4236,Orzeszkowej,52.177585,20.840102
4237,Żywiecka,52.185537,20.903858
4244,Kościuszki,52.093253,20.805412
4250,Magdalenka,52.098340,20.909380
4251,Lesznowola,52.091218,20.933631
4253,Wilcza Góra,52.068903,20.948402
4254,Batalionu Włochy,52.197742,20.904352
4255,Poczty Gdańskiej,52.199199,20.901704
4259,Chełmońskiego,52.191224,20.900693
4260,Lesznowola-Pole,52.095970,20.923310
4262,Walerego Sławka,52.197311,20.897633
4263,Winogronowa,52.055308,20.744603
4264,Brzozowa,52.032088,20.870395
4265,Łanowa,52.017676,20.884863
4266,Kosów,52.055010,20.829556
4267,Wólka Kosowska,52.057380,20.843020
4268,Parlamentarna,52.127446,20.979743
4269,Szkolna,52.086308,20.947264
4270,Postępu,52.081156,20.968842
4271,Kolonia Lesznowola,52.075544,20.966421
4272,Kostowiec,52.061735,20.744871
4273,Zielona,52.067788,20.934010
4274,Polna,52.065613,20.927766
4275,Krótka,52.080770,20.975562
4276,Kielecka,52.082231,20.994066
4277,Nowa,52.082799,21.003378
4278,CH Wólka Kosowska,52.057639,20.858629
4279,Okrężna,52.157993,20.945535
4283,Prystora,52.189182,20.903856
4284,Skorosze,52.186725,20.896464
4285,Urząd Gminy,52.090014,20.801126
4286,Starowiejska,52.083478,20.792547
4287,Stara Wieś,52.082080,20.767402
4288,Rusiec,52.077882,20.783931
4289,Urzut,52.070590,20.758968
4290,Rozalin,52.048919,20.744907
4291,Pałacowa,52.048493,20.753772
4292,Kanarkowa,52.049856,20.767906
4293,Młochów,52.048316,20.780957
4295,Żabieniec,52.074698,20.769985
4297,Leśniczówka,52.030427,20.782797
4298,Krakowiany,52.023174,20.786800
4299,Wola Krakowiańska,52.029836,20.801701
4300,Garbatka,52.031467,20.813057
4301,Parole,52.036453,20.821581
4302,Parole-Pętla,52.040138,20.815114
4303,Jadwisin,52.194053,20.969526
4304,Urząd Statystyczny,52.193240,20.973140
4305,Zajezdnia Ursus Płn.,52.205734,20.884517
4306,Czerwona Droga,52.201490,20.868140
4307,Warszawska,52.199964,20.874105
4308,Suchy Las,52.185849,20.884813
4309,Melcera,52.183357,20.885493
4310,Harfowa,52.201343,20.964091
4311,Przy Parku,52.202001,20.956440
4312,Maszynowa,52.202811,20.949413
4313,Plutonu Torpedy,52.196787,20.890097
4327,Rebusowa,52.175080,20.919979
4329,Kolibra,52.106040,20.978392
4330,Przepiórki,52.101939,20.975831
4331,Kameliowa,52.096534,20.973639
4332,Leszczyńskiego,52.205913,20.870215
4333,Kozaków,52.062802,20.845217
4334,Jesionowa,52.181034,20.887799
4336,Hassa,52.188910,20.898540
4337,Henryka Brodatego,52.193767,20.860097
4338,Dobosza,52.211718,20.966379
4339,Zielonej Gęsi,52.207368,20.859598
4340,Konotopska,52.206903,20.865110
4342,PKP Ursus-Niedźwiadek,52.192050,20.869610
4343,Keniga,52.194724,20.867528
4347,Węzeł Nadarzyn,52.093570,20.808829
4348,PKP Żwirki i Wigury,52.193570,20.981904
4349,P+R Nadarzyn,52.090999,20.800152
4351,Grójecka,52.199894,20.967021
4355,Habicha,52.204195,20.879773
4356,Gniewkowska,52.212842,20.922139
4358,Bakaliowa,52.109201,20.966736
4359,Kakaowa,52.112534,20.966297
4360,Błędna,52.114899,20.972491
4361,Dawidowska,52.115701,20.977072
4700,Łączna,52.030773,20.848247
4701,Niezwykła,52.026346,20.867767
4801,Urząd Gminy,52.089928,20.936655
4802,Willowa,52.128820,20.928630
4803,Olszynowa,52.122038,20.929990
4804,Tolak,52.115761,20.930740
4805,Janczewice,52.110455,20.931582
4806,Al.Jedności,52.103075,20.931884
4810,Łazy-Szkoła,52.076552,20.891068
4811,Lokalna,52.068566,20.893771
4813,Rolna,52.080322,20.883893
4814,Wola Mrokowska,52.030114,20.858086
4815,Postępu,52.030914,20.837669
4816,Jastrzębiec,52.031520,20.829200
4817,Krasickiego,52.090308,20.985837
4818,Postępu,52.092836,20.970846
4819,Nowa Wola,52.095104,20.962592
4833,Gminna,52.088493,20.947680
4847,Rakowska,52.199052,20.954605
4848,Cm.Południowy-Brama Zach.,52.059555,20.894487
4850,Konwaliowa,52.085532,20.865533
4851,os.Walendia,52.088830,20.854979
4852,Dzikiej Róży,52.091590,20.977653
4853,Spokojna,52.084094,20.871466
4871,Przydrożna,52.057504,20.872059
4872,Sosnowa,52.055707,20.887214
4875,Poprzeczna,52.096189,20.933593
4877,Hala Znicz,52.170442,20.816841
4900,Warszawa Zachodnia,52.219773,20.966595
4901,Warszawa Ochota,52.225930,20.991470
4902,Warszawa Włochy,52.206253,20.915478
4903,Warszawa Ursus,52.196680,20.886340
4904,Piastów,52.182840,20.843630
4905,Pruszków,52.168480,20.799730
4913,Warszawa Al.Jerozolimskie,52.206422,20.940609
4917,Warszawa Rakowiec,52.197019,20.965331
4918,Warszawa Żwirki i Wigury,52.193658,20.979403
4919,Warszawa Lotnisko Chopina,52.169566,20.975954
4920,Warszawa Okęcie,52.167419,20.987422
4923,Warszawa Ursus-Niedźwiadek,52.191525,20.870242
5001,P+R Połczyńska,52.221784,20.923929
5002,Wola-Ratusz,52.239965,20.988083
5003,Okopowa,52.237123,20.980959
5004,Zajezdnia Wola,52.235075,20.974171
5005,Metro Płocka,52.233669,20.967648
5006,Sokołowska,52.231851,20.959417
5007,PKP Wola (Wolska),52.230473,20.954789
5008,Elekcyjna,52.229422,20.951398
5009,Reduta Wolska,52.226070,20.943315
5010,Sowińskiego,52.225595,20.937176
5012,Ciepłownia Wola,52.220382,20.918161
5013,Tkaczy,52.218602,20.910601
5014,Drzeworytników,52.216819,20.901117
5016,Instytut Energetyki,52.216400,20.874655
5017,Niska,52.243267,20.884346
5018,Fortowa,52.246910,20.883620
5019,Monte Cassino,52.236666,20.947978
5020,Park Moczydło,52.238389,20.949914
5021,Fort Wola,52.223453,20.930753
5022,Cm.Prawosławny,52.227531,20.947155
5023,ks.Sitnika,52.243472,20.947942
5024,Leszno,52.237929,20.977565
5025,Młynarska,52.237119,20.973161
5026,Płocka-Szpital,52.236981,20.966330
5028,Metro Młynów,52.237700,20.957422
5030,Metro Księcia Janusza,52.238985,20.943940
5031,Góralska,52.239650,20.936910
5032,Metro Ulrychów,52.240327,20.930480
5033,Konarskiego,52.239705,20.919629
5034,Metro Bemowo,52.239152,20.914981
5035,Klemensiewicza,52.238817,20.905574
5036,Mennica,52.235096,20.993097
5037,Muzeum Powstania Warszawskiego,52.233043,20.981028
5038,Rogalińska,52.231356,20.969927
5039,Norblin,52.231995,20.993624
5040,rondo Daszyńskiego,52.230546,20.986285
5041,Karolkowa,52.229325,20.979822
5042,Szpital Wolski,52.228602,20.970592
5043,PKP Wola (Kasprzaka),52.227852,20.958139
5044,Ordona-WSA,52.227492,20.952709
5045,Sternicza,52.220177,20.896976
5046,Siemiatycka,52.223502,20.897063
5047,Człuchowska,52.226881,20.896852
5048,Batalionów Chłopskich,52.231065,20.896684
5049,Szobera,52.235187,20.896473
5050,os.Górczewska,52.238926,20.896240
5051,Narwik,52.241676,20.896571
5052,Fort Blizne,52.245911,20.897596
5053,WAT,52.251525,20.898430
5054,Archimedesa,52.255618,20.897939
5055,Stare Bemowo,52.257964,20.899938
5056,Boernerowo,52.263473,20.899872
5057,Synów Pułku,52.224670,20.916363
5058,Hala Wola,52.228435,20.915318
5059,pl.Kasztelański,52.231064,20.914794
5060,Czumy,52.236210,20.913967
5061,Kazubów,52.241427,20.912454
5062,Piastów Śląskich,52.264121,20.928829
5063,Radiowa,52.251688,20.912509
5064,Wrocławska,52.258058,20.920925
5065,Ogrody Działkowe Bemowo,52.269276,20.933184
5066,Długosza,52.240991,20.970451
5067,pl.Pole Elekcyjne,52.244409,20.965751
5068,Wawrzyszewska,52.245963,20.962817
5069,PKP Koło,52.247352,20.958265
5070,Magistracka,52.247224,20.952862
5071,Deotymy,52.246955,20.947115
5072,Dalibora,52.246733,20.942380
5073,Koło,52.246679,20.938374
5074,Marynin,52.247216,20.925637
5076,Siodlarska,52.247444,20.917030
5077,Dywizjonu 303,52.247029,20.911224
5078,os.Zielony Staw,52.246740,20.906212
5079,Kocjana-Sądy,52.250340,20.890560
5080,Kocjana-Bocznica,52.251408,20.883932
5081,Arkadyjska,52.250727,20.880793
5083,Groty,52.248230,20.878700
5084,Żytnia,52.239880,20.977616
5086,Cm.Żydowski,52.244723,20.976977
5087,Niska,52.249367,20.979212
5088,Sienna,52.229748,20.993715
5089,Chłodna,52.236757,20.989388
5090,Mory,52.215820,20.860386
5091,Bronisze,52.214540,20.840780
5092,Karolin,52.216369,20.881696
5093,Kartezjusza,52.249616,20.895175
5095,Siedmiogrodzka,52.232348,20.976861
5096,Parafialna,52.222919,20.958097
5097,Armatnia,52.220560,20.959550
5098,Zajezdnia Redutowa,52.230169,20.942068
5099,Pustola,52.232860,20.941354
5100,Redutowa,52.235797,20.938605
5101,Brożka,52.242954,20.944687
5102,Rodła,52.263004,20.919086
5103,Antka Rozpylacza,52.234282,20.935049
5104,Znana,52.233764,20.929357
5105,Strąkowa,52.232069,20.925828
5106,Orlich Gniazd,52.249281,20.921545
5107,Widawska,52.252633,20.924046
5108,Raginisa,52.228363,20.908157
5109,Rozłogi,52.227893,20.901789
5110,Radiowa-WAT,52.255062,20.905856
5112,Grenady,52.240157,20.965103
5113,Batalionu Miotła,52.232010,20.920534
5114,Lasek na Kole,52.251614,20.954987
5116,Czorsztyńska,52.243010,20.957800
5117,Dostawcza,52.216316,20.891895
5119,Brylowska,52.224766,20.969254
5120,Kolejowa,52.223012,20.969226
5122,Tatarska,52.254420,20.971040
5123,Kozielska,52.253012,20.966248
5124,Ostroroga,52.247084,20.965972
5125,Sołtyka,52.244292,20.967808
5127,Wagonownia,52.214575,20.930345
5129,Starostwo,52.211228,20.818435
5130,Sanktuarium,52.210157,20.801897
5131,3 Maja,52.210427,20.792662
5132,Kierbedzia,52.210837,20.778631
5133,Umiastowska,52.211036,20.771254
5134,Parkowa,52.214886,20.775024
5136,Hubala-Dobrzańskiego,52.249382,20.869479
5137,Gołaszewska,52.211540,20.750023
5138,AGRICOOP,52.214493,20.744573
5139,Koprki,52.211738,20.741820
5140,Jawczyce,52.215273,20.851401
5141,Nizinna,52.211324,20.759318
5142,Blizne Łaszczyńskiego,52.240243,20.886144
5143,Blizne Jasińskiego,52.242070,20.875071
5144,Lubiczów,52.243761,20.864371
5145,Latchorzew,52.246874,20.850655
5146,Poznańska,52.211156,20.766766
5147,Zagłoby,52.249165,20.873135
5148,Osmańczyka,52.263045,20.931956
5149,os.Olszyny,52.260330,20.931600
5150,Hala Sportowa Bemowo,52.257897,20.932044
5151,os.Leśne,52.254459,20.931464
5152,Księcia Bolesława,52.252549,20.935085
5154,Nowolipie,52.242058,20.988020
5155,Smocza,52.245589,20.985641
5156,Miła,52.247366,20.984236
5157,Esperanto,52.244491,20.978863
5158,Powązki-IV Brama,52.254187,20.974031
5159,Powązkowska,52.253330,20.979521
5160,Pirenejska,52.255915,20.918268
5161,Nowe Bemowo,52.260626,20.924109
5162,Fort Radiowo,52.264624,20.885089
5163,Kocjana,52.248787,20.898007
5164,Ogrody Działkowe Piaski,52.261234,20.940637
5165,Fort Bema,52.259323,20.936646
5169,Wolica k.Płochocina,52.193404,20.694984
5170,Jesionowa,52.229130,20.867878
5171,Kalinowa Droga,52.228950,20.862580
5172,Sochaczewska,52.225297,20.858615
5173,Szkolna,52.227274,20.848777
5174,Arena Ożarów,52.230559,20.797218
5175,Kaputy,52.230371,20.786043
5176,Willowa Aleja,52.230997,20.773280
5177,Umiastów,52.231446,20.764633
5178,Pogroszew,52.230857,20.745293
5179,Pogroszew Kolonia,52.234006,20.723618
5180,Pilaszków,52.232633,20.697870
5181,Łaźniewska,52.218721,20.692311
5182,Zaborowska,52.213031,20.691543
5183,Źródlana,52.210834,20.699860
5184,Święcicka,52.203153,20.696296
5185,Myszczyn,52.233443,20.712991
5186,Poniatowskiego,52.210980,20.797424
5187,Obrońców Warszawy,52.214024,20.799286
5188,Kossaka,52.222132,20.801100
5189,Krańcowa,52.212587,20.870863
5190,Robotnicza,52.217824,20.800157
5191,Orzechowa,52.231169,20.824316
5192,Lazurowa,52.216293,20.897362
5193,Wronia,52.234024,20.987064
5196,Rataja,52.230809,20.738599
5197,Partyzantów,52.212846,20.811096
5205,Jana Kazimierza,52.222343,20.937600
5209,Umiastowska-Cmentarz,52.225749,20.772939
5210,Myszczyn II,52.241074,20.691872
5211,Powązki-VI Brama,52.249888,20.965025
5212,Zachodzącego Słońca,52.226646,20.802057
5213,Żyzna,52.230648,20.780384
5214,Zachodzącego Słońca,52.259769,20.917598
5215,Poniatowskiego,52.230821,20.802898
5601,rondo Daszyńskiego,52.230109,20.983547
5602,Płocka,52.232140,20.966361
5603,Młynów,52.237514,20.961056
5604,Księcia Janusza,52.239058,20.944944
5605,Ulrychów,52.240189,20.930690
5606,Bemowo,52.239222,20.916411
5800,Wieruchów,52.230447,20.833042
5801,Strzykuły,52.230771,20.816093
5802,Piotrkówek Mały,52.224275,20.814086
5803,PKP Ożarów Mazowiecki,52.207924,20.796027
5903,Warszawa Wola,52.230253,20.957900
5904,Warszawa Młynów,52.239517,20.958569
5907,Warszawa Koło,52.246854,20.959114
5908,Warszawa Powązki,52.256043,20.972357
6001,gen.Zajączka,52.262385,20.992224
6002,pl.Inwalidów,52.264306,20.990252
6003,pl.Wilsona,52.269139,20.984567
6004,Teatr Komedia,52.270405,20.978892
6005,Metro Marymont,52.271709,20.971918
6006,Metro Słodowiec,52.276037,20.962870
6007,Podleśna-IMGW,52.280452,20.958764
6008,AWF,52.283415,20.955981
6009,Twardowska,52.284792,20.954716
6010,Szpital Bielański,52.287420,20.952183
6011,UKSW,52.289243,20.950478
6012,Las Bielański,52.293113,20.946849
6013,Przy Agorze,52.294443,20.945535
6014,Cm.Włoski,52.298323,20.941892
6015,Prozy,52.300253,20.939797
6016,Muzealna,52.305367,20.933627
6017,Dzierżoniowska,52.308634,20.927661
6018,Park Młociński,52.313820,20.921439
6020,Perzyńskiego,52.276292,20.953041
6021,Bielany-Ratusz,52.276800,20.948764
6023,Andersena,52.277735,20.940299
6024,Aspekt,52.278513,20.933894
6025,Cm.Wawrzyszewski,52.279938,20.928615
6026,Bogusławskiego,52.280938,20.924948
6027,Popiela,52.281873,20.921124
6028,Tytułowa,52.283052,20.915455
6029,Chabrowa,52.283752,20.902707
6030,Księżycowa,52.284407,20.896852
6031,Radiowo,52.285788,20.887110
6032,Radiowo-Bocznica,52.286422,20.882507
6033,Mościska,52.286957,20.878510
6034,Akcent,52.295337,20.878126
6035,Estrady,52.299192,20.881248
6036,Wólka Węglowa,52.302893,20.883016
6037,Trenów-Las,52.309376,20.883129
6038,Kampinoska,52.317310,20.882065
6039,pl.Grunwaldzki,52.263658,20.978727
6040,Sady Żoliborskie,52.264000,20.973129
6041,Włościańska,52.267126,20.960520
6043,Romaszewskiego,52.269551,20.953051
6045,Piaski,52.271903,20.944581
6046,al.Reymonta,52.274719,20.939263
6047,Conrada,52.270493,20.933363
6048,Chomiczówka,52.272714,20.925442
6049,Kwitnąca,52.275295,20.923105
6050,Tołstoja,52.283726,20.927142
6051,Podczaszyńskiego,52.278500,20.956034
6052,Metro Stare Bielany,52.280735,20.951180
6053,Widokowa,52.305383,20.884789
6054,Oczapowskiego,52.283835,20.944412
6055,Metro Wawrzyszew,52.287186,20.937100
6057,Sokratesa,52.288374,20.932843
6058,Nocznickiego,52.284872,20.922982
6059,Metro Młociny,52.289887,20.931206
6061,Zajezdnia Żoliborz,52.297935,20.934822
6062,Tułowicka,52.310140,20.912800
6064,Rokokowa,52.286301,20.909353
6065,Wólczyńska-Bocznica,52.286936,20.903664
6066,Opłotek,52.292314,20.902206
6068,Palisadowa,52.294713,20.904955
6069,Cm.Północny-Brama Gł.,52.299442,20.903748
6070,Wrzeciono,52.292010,20.937740
6071,Cm.Północny-Brama Płn.,52.305357,20.907761
6072,Dankowicka,52.309015,20.911106
6073,Żubrowa-UKSW,52.311168,20.915967
6074,Anny Jagiellonki,52.308960,20.919940
6075,Park Kaskada,52.273202,20.966875
6076,Bohomolca,52.272646,20.983080
6077,Marymont-Potok,52.274530,20.981534
6078,Drohicka,52.276002,20.982834
6079,Barszczewska,52.278392,20.986532
6080,Tylżycka,52.281526,20.984609
6081,os.Ruda,52.284886,20.979116
6082,Gwiaździsta,52.286674,20.977405
6083,most Grota-Roweckiego,52.282630,20.987732
6084,Lutosławskiego,52.274869,20.852107
6086,Klaudyny,52.285728,20.971842
6087,Magiera,52.271230,20.950410
6088,Przasnyska,52.261842,20.968434
6089,Rydygiera,52.258776,20.970227
6090,PKP Powązki,52.255954,20.969164
6091,Elbląska,52.258710,20.962050
6092,Czajkowskiego,52.278269,20.842710
6093,Powązki-Cm.Wojskowy,52.260345,20.957939
6094,ks.Popiełuszki,52.266745,20.976686
6095,Cytadela,52.265005,21.003620
6096,Centrum Olimpijskie,52.270378,20.997033
6097,Schroegera,52.280840,20.939839
6098,Suzina,52.267009,20.979955
6099,Czarnieckiego,52.270486,20.992115
6100,Cm.Północny-Brama Zach.,52.304856,20.887023
6101,Młocińska,52.321104,20.884048
6102,Grzybowa,52.323437,20.880760
6103,Cm.Północny-Brama Płd.,52.296107,20.894087
6104,Vivaldiego,52.274800,20.845437
6105,Szymanowskiego,52.280937,20.847150
6106,Ciećwierza,52.280113,20.853186
6107,Mościckiego,52.269476,20.814186
6108,Lipków,52.273308,20.808160
6109,Wojcieszyn,52.256576,20.770262
6110,Wierzbin,52.255721,20.749320
6111,Borzęcin Duży,52.252698,20.733234
6112,Klaudyn,52.274185,20.864849
6113,Janów,52.265326,20.857561
6114,Kwirynów,52.257937,20.851499
6115,Rynek,52.250711,20.841975
6116,Skibińskiego,52.307839,20.767387
6117,3 Maja,52.303221,20.777461
6118,Parkowa,52.300025,20.786829
6119,Langiewicza,52.295475,20.801380
6120,Sierakowska,52.294385,20.804717
6121,Kościuszki-Szkoła,52.293484,20.810816
6122,Urząd Gminy,52.292060,20.817832
6123,Sienkiewicza,52.290776,20.828722
6124,Sokołowskiego,52.291057,20.838702
6125,Pocztowa,52.292433,20.851049
6126,Łąkowa,52.290330,20.857257
6127,Hornówek,52.287102,20.798300
6128,Kampinoska,52.281930,20.876038
6129,gen.Maczka,52.261721,20.954409
6131,Kochanowskiego,52.267399,20.946867
6132,Galla Anonima,52.269141,20.943015
6133,os.Potok,52.278760,20.977261
6134,Hłaski,52.276839,20.970972
6135,Planty,52.298010,20.805647
6136,Sobocka,52.281750,20.972570
6137,Rudzka,52.279349,20.973063
6138,Energetyczna,52.291914,20.876970
6139,Sieraków,52.312648,20.812368
6140,Sikorskiego,52.288202,20.869165
6141,Długa,52.328895,20.882304
6143,Wiosenna,52.335535,20.880630
6144,Piaskowa,52.333158,20.886384
6145,Młociny-UKSW,52.312886,20.917125
6146,Chodkiewicza,52.301257,20.807384
6147,Wołodyjowskiego,52.255615,20.838812
6148,Osiedlowa,52.263975,20.824840
6149,Zielonki,52.252074,20.819468
6150,Wieruchowska,52.248889,20.835062
6151,Zielonki-Wieś,52.254207,20.794633
6152,Koczargi Stare,52.263704,20.795654
6153,Akacjowa,52.273619,20.801938
6155,Obrońców Tobruku,52.265155,20.945640
6157,Borzęcin Duży-Wieś,52.256127,20.717285
6158,Wyględy,52.259123,20.702280
6159,Wiosenna,52.260690,20.685922
6160,Zaborów-Szkoła,52.262465,20.676335
6161,Janin,52.263421,20.663540
6162,Zaborówek-Osiedle,52.262899,20.647002
6163,Zaborówek-Wieś,52.261889,20.627933
6164,Warszawska,52.260444,20.613641
6165,Leszno-GS,52.259340,20.602412
6168,Dziekanów Leśny,52.341522,20.847219
6170,Reymonta,52.250779,20.857722
6171,Cmentarz,52.251054,20.849398
6172,Janowskiego,52.250088,20.862747
6173,Trakt Królewski,52.261257,20.735671
6174,Borki,52.274571,20.739693
6175,Mariew,52.282112,20.743725
6176,Wólczyńska,52.283559,20.729342
6177,Wólka,52.278731,20.712626
6178,Leśna,52.265064,20.703263
6179,Topolowa,52.260294,20.697321
6180,Wrzosowa,52.264712,20.788040
6185,gen.Kutrzeby,52.250690,20.826094
6186,Warszawska,52.253334,20.804565
6187,Królowej Marysieńki,52.256611,20.759152
6188,Borzęcin Duży-Szkoła,52.252015,20.737543
6189,Głowackiego,52.273805,20.915912
6190,Maszewska,52.273157,20.911323
6191,Fort Wawrzyszew,52.275008,20.903363
6193,Trenów,52.314252,20.882452
6196,Zorzy,52.277547,20.875635
6197,Felińskiego,52.260353,20.990202
6198,ks.Boguckiego,52.259809,20.983128
6200,Thomme,52.260577,20.832436
6201,Paschalisa-Jakubowicza,52.270313,20.807521
6202,Koczargi Nowe,52.255366,20.786387
6208,Podleśna,52.268329,20.797394
6209,Ekologiczna,52.274944,20.872893
6212,Dw.Gdański (Rydygiera),52.259463,20.993562
6214,Wólczyńska,52.297322,20.888466
6215,Anny German,52.259830,20.975171
6218,Chabrowa,52.270413,20.708601
6219,Dąbrowa Zachodnia,52.332799,20.868584
6220,Stanisławów,52.279715,20.742469
6223,Conrada-Szkoła,52.271211,20.929085
6224,Pancerz,52.321477,20.894341
6225,Karabeli,52.265894,20.809612
6226,Ułanów Jazłowieckich,52.332048,20.875193
6228,GOSiR,52.246840,20.818740
6230,Końcowa,52.304888,20.809507
6401,Palmiry,52.366472,20.777980
6407,Łomianki-Centrum,52.340164,20.889169
6411,Ogrodowa,52.347835,20.865386
6601,Plac Wilsona,52.269428,20.983781
6602,Marymont,52.271760,20.971557
6603,Słodowiec,52.277113,20.959649
6604,Stare Bielany,52.282140,20.948776
6605,Wawrzyszew,52.286604,20.939053
6606,Młociny,52.291028,20.929444
6624,Buraków,52.322697,20.911482
6625,Brukowa,52.329209,20.902838
6626,POLMO,52.331287,20.902208
6627,Lwowska,52.333867,20.899327
6628,Łomianki-Szkoła,52.337240,20.895605
6630,Weteranów,52.350082,20.875589
6631,Kiełpin-Cmentarz,52.352419,20.875464
6632,Kiełpin,52.354913,20.869489
6633,KMŁ,52.356773,20.864480
6634,Koszałka Opałka,52.360270,20.856519
6635,Dziekanów Polski Wschód,52.361964,20.852607
6636,Dziekanów Polski Centrum,52.365883,20.843756
6637,Dziekanów Polski Zachód,52.367699,20.838724
6638,Dziekanów Nowy Wschód,52.370372,20.829007
6639,Dziekanów Nowy Zachód,52.372394,20.821452
6640,Pieńków-Sklep,52.374120,20.812830
6641,Podróżna,52.367355,20.837269
6642,Sadowa-Dom Opieki,52.348983,20.827737
6643,Wędkarska,52.354558,20.844359
6644,Kolejowa,52.357530,20.833098
6645,Strzelecka,52.352598,20.831089
6646,Pieńków-Wieś,52.375536,20.805893
6647,Łomna-Las,52.377014,20.798617
6648,Łomna-Cmentarz,52.379229,20.787204
6649,Łomna-Kościół,52.379728,20.784213
6650,Łomna Wschód,52.380457,20.783103
6651,Łomna-Szkoła,52.382455,20.777321
6652,Łomna Zachód,52.384529,20.771233
6653,Cząstków Polski Wschód,52.387681,20.761972
6654,Cząstków Polski,52.389793,20.754941
6655,Cząstków Mazowiecki,52.391454,20.743339
6656,Czosnów,52.390127,20.733171
6659,Sadowa,52.359415,20.829213
6660,Dziekanówek,52.351882,20.817430
6661,Poziomkowa,52.363988,20.814916
6662,Wiśniowa,52.370668,20.794033
6663,Kusocińskiego,52.374312,20.782719
6664,Firmowa,52.379146,20.767628
6665,Cicha,52.383555,20.753852
6666,Duńska,52.385636,20.737742
6667,Prosta,52.375558,20.732886
6668,Graniczna,52.373439,20.723407
6669,Południowa,52.373402,20.715382
6670,Augustówek,52.374219,20.699403
6671,Jesionka,52.374170,20.690549
6672,Szkoła,52.373378,20.679447
6673,Dworska,52.372331,20.666360
6674,Kampinoska,52.369980,20.651120
6675,Polnych Kwiatów,52.363992,20.653354
6676,Szkoła,52.360781,20.642134
6677,Spacerowa,52.359383,20.635042
6679,Sowia Wola Folwarczna,52.364935,20.629141
6680,Cybulice Duże,52.375058,20.629544
6681,Janów-Mikołajówka,52.371635,20.660189
6682,Północna,52.373853,20.705402
6801,Kosmowska I,52.250734,20.727852
6802,Kosmowska II,52.249857,20.719794
6803,Borzęcin Mały,52.247673,20.709017
6804,Dzikiej Róży,52.245485,20.697517
6806,Instytut Ekologii PAN,52.346170,20.857030
6807,Graniczka,52.348618,20.862847
6808,"Armii ""Poznań""",52.345433,20.872865
6809,ICDS,52.343878,20.877607
6810,Kościół,52.341862,20.883887
6811,Wiślana,52.338799,20.892020
6812,Nowe Babice,52.242023,20.846606
6815,Zagłoby,52.282994,20.832698
6816,Sapiehy,52.285494,20.829530
6817,Kampinos,52.267712,20.462591
6819,Wiejca III,52.263590,20.485135
6820,Wiejca II,52.261283,20.500108
6821,Wiejca I,52.259747,20.516941
6822,Wilkowa Wieś II,52.259057,20.525618
6823,Świerkowa,52.256848,20.558166
6824,Czarna Droga,52.256966,20.572171
6825,Wilkowa Wieś I,52.258328,20.540116
6826,Przy Parku,52.277297,20.804508
7001,Emilii Plater,52.232947,21.002685
7002,Dw.Centralny,52.227890,21.003750
7003,most Poniatowskiego,52.234754,21.035783
7004,Noakowskiego,52.222823,21.007699
7005,pl.Politechniki,52.220031,21.011500
7006,Metro Politechnika,52.216862,21.013961
7009,Marszałkowska,52.217931,21.020112
7011,pl.Konstytucji,52.222320,21.015754
7012,Hoża,52.225514,21.014105
7013,Centrum,52.229076,21.011909
7014,Metro Świętokrzyska,52.236352,21.007656
7015,Królewska,52.238651,21.005850
7016,pl.Bankowy,52.243090,21.002102
7017,Muranów,52.250440,20.998331
7019,Dw.Gdański,52.258245,20.995549
7020,Dzika,52.252875,20.990806
7021,Inflancka,52.253652,20.994285
7022,Bonifraterska,52.258378,20.997874
7023,Nalewki-Muzeum,52.248771,20.994563
7024,Zamenhofa,52.246562,20.996945
7025,pl.Grzybowski,52.236441,21.003143
7026,pl.Teatralny,52.242821,21.009940
7027,pl.Piłsudskiego,52.241898,21.012651
7028,Zachęta,52.239346,21.010590
7029,pl.Małachowskiego,52.238224,21.011629
7033,Krucza,52.231027,21.017979
7034,Wspólna,52.228174,21.017585
7035,Mokotowska,52.223458,21.018393
7036,DS Riviera,52.215903,21.015302
7037,pl.Na Rozdrożu,52.220712,21.024805
7039,Wiejska,52.224255,21.028815
7040,pl.Trzech Krzyży,52.226923,21.023225
7041,Muzeum Narodowe,52.232178,21.023445
7042,Foksal,52.232358,21.020015
7043,Nowy Świat,52.236600,21.015896
7044,Uniwersytet,52.240069,21.016608
7045,Hotel Bristol,52.241980,21.015361
7046,pl.Zamkowy,52.245360,21.013820
7047,Stare Miasto,52.246778,21.015564
7048,Kapitulna,52.246534,21.011494
7049,Ordynacka,52.236112,21.018153
7050,pl.Krasińskich,52.248842,21.005668
7052,Konwiktorska,52.254308,21.001099
7053,KS Polonia,52.255787,20.998768
7054,Park Traugutta,52.258714,21.003395
7055,most Gdański,52.260122,21.007053
7056,Sanguszki,52.254858,21.011554
7057,Podzamcze,52.249342,21.017305
7058,Nowy Zjazd,52.246860,21.020420
7059,Mariensztat,52.246224,21.019522
7060,Dobra,52.243620,21.022170
7061,Biblioteka Uniwersytecka,52.242149,21.024297
7062,Zajęcza,52.239415,21.026955
7063,Jaracza,52.236336,21.030890
7064,al. 3 Maja,52.234777,21.033477
7065,Solec,52.232183,21.037018
7066,Czerniakowska,52.230377,21.033713
7067,Topiel,52.237550,21.026808
7068,PKP Powiśle,52.232715,21.025920
7069,Książęca,52.229311,21.031377
7070,Śniegockiej,52.226656,21.033892
